"name","city","state","country","address","Longitude","Latitude","Municipalities","Website",""
"Saint Joseph Cemetery","Mariposa"," California"," United States","4983-4985 Bullion Mariposa, Mariposa, California, 95338 United States","-119.96126309117","37.482606821037"," Mariposa","",""
"Bexar Cemetery","Hamilton"," Alabama"," United States","5988-6054 County Road 13 Hamilton, Marion, Alabama, 35570 United States","-88.144994598858","34.208205570712"," Marion","",""
"Saint Joseph Cemetery","Sacramento"," California"," United States","2615 21St Sacramento, Sacramento, California, 95894 United States","-121.48498865546","38.557508353708"," Sacramento","",""
"Bevill Cemetery","Hazel Green"," Alabama"," United States","198 Bevills Church Rd Hazel Green, Madison, Alabama, 35750 United States","-86.522757503361","34.976193671942"," Madison","",""
"Beulahs Chapel Cemetery","Ider"," Alabama"," United States","4900-4912 County Road 159 Ider, DeKalb, Alabama, 35981 United States","-85.626292592494","34.76469667386"," DeKalb","",""
"Saint Joseph Catholic Cemetery","Yreka"," California"," United States","Yreka, Siskiyou, California, 96097 United States","-122.62870525915","41.730446845249"," Siskiyou","",""
"Beulah Cemetery","Russellville"," Alabama"," United States","Beulah Rd Russellville, Franklin, Alabama, 35654 United States","-87.539359941775","34.417236667841"," Franklin","",""
"Saint Joseph Cemetery","San Pablo"," California"," United States","San Pablo, Contra Costa, California United States","-122.332222","37.96056"," Contra Costa","",""
"Beulah Cemetery","Dadeville"," Alabama"," United States","Beulah Rd Dadeville, Tallapoosa, Alabama, 36853 United States","-85.856049994795","32.662183881909"," Tallapoosa","",""
"Beulah Cemetery","Wadley"," Alabama"," United States","1216-2284 County Road 133 Wadley, Chambers, Alabama, 36276 United States","-85.584172142923","33.09420346915"," Chambers","",""
"Bibb Cemetery","Madison"," Alabama"," United States","101-107 Bibb Dr Madison, Madison, Alabama, 35758 United States","-86.758412365767","34.699943928562"," Madison","",""
"Bibb Cemetery","Tanner"," Alabama"," United States","24371-24999 County Road 45 Tanner, Limestone, Alabama, 35671 United States","-86.884496986282","34.642398288483"," Limestone","",""
"Beulah Cemetery","Gadsden"," Alabama"," United States","12926-12952 Owls Hollow Rd Gadsden, Etowah, Alabama, 35901 United States","-85.853395521217","34.135355464406"," Etowah","",""
"Beulah Cemetery","Knoxville"," Alabama"," United States","County Road 213 Knoxville, Greene, Alabama, 35469 United States","-87.862517605451","33.024794500589"," Greene","",""
"Beulah Cemetery","Eutaw"," Alabama"," United States","Unnamed Rd Eutaw, Greene, Alabama, 35462 United States","-87.892180271791","32.804369788892"," Greene","",""
"Beulah Cemetery","Valley"," Alabama"," United States","5401-5499 Beulah Rd Valley, Lee, Alabama, 36854 United States","-85.175083260829","32.71316714992"," Lee","",""
"Boyd Family Cemetery","Whitfield"," Georgia"," United States","3261 Mount Pleasant Road Northeast Whitfield, Georgia, 30721 United States","-84.843592058432","34.933641992574","","",""
"Beulah Cemetery","Hope Hull"," Alabama"," United States","Hope Hull, Lowndes, Alabama, 36043 United States","-86.498894","32.23"," Lowndes","",""
"Boyd Slave Cemetery","Hilderbrand"," Georgia"," United States","3494 Jarita Way Hilderbrand, Douglas, Georgia, 30135 United States","-84.666181","33.693959"," Douglas","",""
"Boyd Chapel Cemetery","Hiawassee"," Georgia"," United States","135-195 Hall Creek Rd Hiawassee, Towns, Georgia, 30546 United States","-83.635695890281","34.946374741135"," Towns","",""
"Bowersville City Cemetery","Bowersville"," Georgia"," United States","W Main St Bowersville, Hart, Georgia, 30516 United States","-83.079885268313","34.382214491437"," Hart","",""
"Beulah Cemetery","Northport"," Alabama"," United States","4760 Watermelon Rd Northport, chambers, Alabama, 35473 United States","-87.548810022977","33.250270719648"," chambers","",""
"Bowman Cemetery","Woodbury"," Georgia"," United States","1731-1733 Upper Cove Rd Woodbury, Meriwether, Georgia, 30293 United States","-84.554979872832","32.929071143122"," Meriwether","",""
"Bowers Cemetery","Bowersville"," Georgia"," United States","854-1098 College Ave Bowersville, Hart, Georgia, 30516 United States","-83.087341502221","34.349173859289"," Hart","",""
"Bowles-Durham Cemetery","Union Point"," Georgia"," United States","Woodville Rd Union Point, Greene, Georgia, 30669 United States","-83.048128467388","33.677213053428"," Greene","",""
"Beulah Cemetery","Sterrett"," Alabama"," United States","49401-49437 Alabama 25 Sterrett, Shelby, Alabama, 35147 United States","-86.478848989704","33.440908001927"," Shelby","",""
"Beulah Cemetery","Ozark"," Alabama"," United States","W Andrews Ave Ozark, Dale, Alabama, 36360 United States","-85.704007688735","31.378296811345"," Dale","",""
"Beulah Cemetery","Boaz"," Alabama"," United States","1818-2446 Beulah Rd Boaz, Marshall, Alabama, 35957 United States","-86.155122589407","34.250133545048"," Marshall","",""
"Beulah Cemetery","Opp"," Alabama"," United States","Maggie Rd Opp, Covington, Alabama, 36467 United States","-86.230979981499","31.22953273357"," Covington","",""
"Bowman City Cemetery","Bowman"," Georgia"," United States","Bowers St Bowman, Elbert, Georgia, 30624 United States","-83.023769257151","34.201888808581"," Elbert","",""
"Bowdon City Cemetery","Bowdon"," Georgia"," United States","222 Mill St Bowdon, Carroll, Georgia, 30108 United States","-85.256393","33.5425"," Carroll","",""
"Beulah Cemetery","Troy"," Alabama"," United States","576-598 S 3 Notch St Troy, Pike, Alabama, 36081 United States","-85.974442","31.798611"," Pike","",""
"Bowen-Dekle Cemetery","Register"," Georgia"," United States","Excelsior Rd Register, Candler, Georgia, 30452 United States","-81.951634172885","32.329325737037"," Candler","",""
"Botsford Cemetery","Waynesboro"," Georgia"," United States","Botsford Church Rd Waynesboro, Burke, Georgia, 30830 United States","-81.87430657916","33.09995174575"," Burke","",""
"Bowen Cemetery","Eastman"," Georgia"," United States","3201-3299 Georgia 87 Eastman, Dodge, Georgia, 31023 United States","-83.252089267471","32.096752969113"," Dodge","",""
"Bowell Cemetery","Abbeville"," Georgia"," United States","162-236 Airport Rd Abbeville, Wilcox, Georgia, 31001 United States","-83.304060875171","31.979490312149"," Wilcox","",""
"Boston City Cemetery","Boston"," Georgia"," United States","Butler Boston, Thomas, Georgia, 31626 United States","-83.794274318236","30.790611694742"," Thomas","",""
"Bowdon Baptist Cemetery","Bowdon"," Georgia"," United States","205 Mill St Bowdon, Carroll, Georgia, 30108 United States","-85.257254304281","33.53980127675"," Carroll","",""
"Bottom Cemetery","Jonesboro"," Georgia"," United States","342-346 Hewell Rd Jonesboro, Fayette, Georgia, 30238 United States","-84.400558","33.479172"," Fayette","",""
"Bothwell Cemetery","Louisville"," Georgia"," United States","1000-1798 Bothwell Rd Louisville, Jefferson, Georgia, 30434 United States","-82.483063","33.114441"," Jefferson","",""
"Boswell Chapel Baptist Church Cemetery","Greensboro"," Georgia"," United States","3241 Penfield Road Greensboro, Greene, Georgia, 30642 United States","-83.167602117336","33.629276238847"," Greene","",""
"Bostick Cemetery","Griffin"," Georgia"," United States","2225 McIntosh Griffin, Spalding, Georgia, 30223 United States","-84.210894581795","33.291321161687"," Spalding","",""
"Booth Memorial Park","Statham"," Georgia"," United States","2021 Tallassee Rd Statham, Barrow, Georgia, 30666 United States","-83.572706771433","34.001884413459"," Barrow","",""
"Caney Cemetery ","Bluff City"," Arkansas"," United States","3291 AR 299 Bluff City, Nevada, Arkansas, 71858 United States","-93.245932008843","33.670390882322"," Nevada","",""
"Caney Spring Cemetery","Melbourne"," Arkansas"," United States","Arkansas 69 Spur Melbourne, Izard, Arkansas, 72556 United States","-91.818611","36.061111"," Izard","",""
"Caney Cemetery","Bonnerdale"," Arkansas"," United States","Mt View Rd Bonnerdale, Montgomery, Arkansas, 71933 United States","-93.493889","34.41444"," Montgomery","",""
"Cannady Cemetery","Huntsville"," Arkansas"," United States","1369 Madison 8701 Huntsville, Madison, Arkansas, 72740 United States","-93.784439","36.174999"," Madison","",""
"Bowers Cemetery","Cochran"," Georgia"," United States","John Broome Rd Cochran, Dodge, Georgia, 31014 United States","-83.282316169313","32.330935983777"," Dodge","",""
"Caney Cemetery","Yellville"," Arkansas"," United States","County Road 532 Yellville, Marion, Arkansas, 72687 United States","-92.634967110142","36.067329932392"," Marion","",""
"Canada Cemetery","Rison"," Arkansas"," United States","Alex Smith Rison, Cleveland, Arkansas, 71665 United States","-92.354676339856","34.014745113174"," Cleveland","",""
"Canaan Cemetery","Searcy"," Arkansas"," United States","County Road 272 Searcy, Arkansas, 72750 United States","-92.696666095067","35.88963924883","","",""
"Campground Cemetery","Salem"," Arkansas"," United States","County Road 38 Salem, Izard, Arkansas, 72565 United States","-91.955001339781","36.225699791654"," Izard","",""
"Campground Cemetery","Cleveland"," Arkansas"," United States","3570-3580 Arkansas 95 Cleveland, Conway, Arkansas, 72030 United States","-92.710373245717","35.399598664103"," Conway","",""
"Campground Cemetery","Hector"," Arkansas"," United States","3939-4457 Gunter Mountain Rd Hector, Pope, Arkansas, 72843 United States","-92.995864749148","35.474594292869"," Pope","",""
"Campground Cemetery","Batesville"," Arkansas"," United States","O'Neal Rd Batesville, Independence, Arkansas, 72501 United States","-91.801788966941","35.788259170568"," Independence","",""
"Campbell Cemetery","Imboden"," Arkansas"," United States","Muddy Ln Imboden, Randolph, Arkansas, 72434 United States","-91.141113","36.18306"," Randolph","",""
"Cane Creek Cemetery","De Queen"," Arkansas"," United States","157-169 County Road 224 De Queen, Sevier, Arkansas, 71832 United States","-94.451111","34.082779"," Sevier","",""
"Campbell Cemetery","Sage"," Arkansas"," United States","Unnamed Rd Sage, Izard, Arkansas, 72573 United States","-91.780367460352","36.064414160664"," Izard","",""
"Campbell Church Cemetery","West Fork"," Arkansas"," United States","11000-11072 Campbell Cmty Bldg Rd West Fork, Washington, Arkansas, 72774 United States","-94.190351028903","35.958487216188"," Washington","",""
"Campbell Cemetery","Ozark"," Arkansas"," United States","Unnamed Rd Ozark, Franklin, Arkansas, 72949 United States","-93.910004","35.624439"," Franklin","",""
"Campbell Cemetery","Guion"," Arkansas"," United States","Arkansas 58 Guion, Izard, Arkansas, 72540 United States","-91.911667","35.933891"," Izard","",""
"Campbell (aka Polston) Cemetery","Strawberry"," Arkansas"," United States","0 Lawrence Road 319 Strawberry, Lawrence, Arkansas, 72469 United States","-91.350281","35.917221"," Lawrence","",""
"Meriden Hebrew Cemetery","Meriden"," Connecticut"," United States","2-164 Corrigan Ave Meriden, New Haven, Connecticut, 06451 United States","-72.820557","41.547779"," New Haven","",""
"Canehill Cemetery","Lincoln"," Arkansas"," United States","18050-18298 Wc 440 Lincoln, Washington, Arkansas, 72744 United States","-94.399083861279","35.912622427751"," Washington","",""
"Cane Creek Cemetery","Strong"," Arkansas"," United States","Caney Creek Rd Strong, Union, Arkansas, 71765 United States","-92.442354838488","33.078558740588"," Union","",""
"Campground Cemetery","Winthrop"," Arkansas"," United States","Little River 38 Winthrop, Little River, Arkansas, 71866 United States 
                         
                    ","-94.377725394818","33.826524494371"," Little River","https://sites.rootsweb.com/~arcemete/littleriver/campground.htm",""
"Marcus Cooke Memorial Park","Wallingford Center"," Connecticut"," United States","9 Old Rock Hill Rd Wallingford Center, New Haven, Connecticut, 06492 United States","-72.786392","41.451939"," New Haven","",""
"MALA ROZTOKA,UKRAINE","Bethel Bethel"," Connecticut"," United States","29 Benedict Road Bethel Bethel, Fairfield, Connecticut, 06801 United States","-73.394165039062","41.40681461278"," Fairfield","",""
"Maple Grove Memorial Park","Easton"," Connecticut"," United States","31-73 Harvester Rd Easton, Fairfield, Connecticut, 06612 United States","-73.240859357143","41.242343009777"," Fairfield","",""
"Maine Cemetery","North Stonington"," Connecticut"," United States","Sleepy Hollow Road No 2 North Stonington, New London, Connecticut, 06359 United States","-71.854929349914","41.463848571362"," New London","",""
"Main Cemetery","North Stonington"," Connecticut"," United States","155 Reutemann Road North Stonington, New London, Connecticut, 06359 United States","-71.854806","41.449194"," New London","",""
"Middleground Cemetery","Southbury"," Connecticut"," United States","770-798 Old Field Rd Southbury, New Haven, Connecticut, 06488 United States","-73.215828","41.49139"," New Haven","",""
"Main Cemetery","North Stonington"," Connecticut"," United States","131-159 Miller Road North Stonington, New London, Connecticut, 06359 United States","-71.892812","41.51352"," New London","",""
"Middlefield Cemetery","Middlefield"," Connecticut"," United States","349-351 Main Street Middlefield, Middlesex, Connecticut, 06455 United States","-72.707813","41.519243"," Middlesex","",""
"Middlebury Cemetery","Middlebury"," Connecticut"," United States","1-99 Cemetery Rd Middlebury, New Haven, Connecticut, 06762 United States","-73.126389","41.534168"," New Haven","",""
"Melchizedek Cemetery","Waterbury"," Connecticut"," United States","79 Plank Road Waterbury, New Haven, Connecticut, 06705 United States","-73.0128652589352","41.5416185683973"," New Haven","",""
"Marlboro Cemetery","Marlborough"," Connecticut"," United States","19-37 East Hampton Road Marlborough, Hartford, Connecticut, 06447 United States","-72.460525","41.62864"," Hartford","",""
"Maromas Cemetery","Middletown"," Connecticut"," United States","149-259 State Highway 410 Middletown, Middlesex, Connecticut, 06457 United States","-72.563889","41.53083"," Middlesex","",""
"Masonic Cemetery","Wallingford Center"," Connecticut"," United States","838-840 Connecticut 15 Wallingford Center, New Haven, Connecticut, 06492 United States","-72.833445932814","41.46472611693"," New Haven","",""
"Luther Cemetery","East Haddam"," Connecticut"," United States","103 Connecticut 148 East Haddam, New London, Connecticut, 06423 United States","-72.415837291667","41.420677981938"," New London","",""
"Mason Cemetery","Stonington"," Connecticut"," United States","13 Avery Street Stonington, New London, Connecticut, 06355 United States","-71.95815997332","41.350336373494"," New London","",""
"Maplewood Cemetery","Norwich"," Connecticut"," United States","Maplewood Cemetery Main Street Norwich, New London, Connecticut, 06360 United States","-72.11754743782","41.50606519696"," New London","",""
"Maine Cemetery","North Stonington"," Connecticut"," United States","478 Pendleton Hill Road North Stonington, New London, Connecticut, 06359 United States","-71.832687","41.467068"," New London","",""
"Saint John Catholic Cemetery","Milpitas"," California"," United States","651 Piedmont Road Milpitas, Santa Clara, California, 95035 United States 
                         
                    ","-121.86732148442","37.434253219732"," Santa Clara","http://www.ccdsj.org/st_john.html",""
"Saint James Episcopal Church Columbarium","Fremont"," California"," United States","37051 Cabrillo Terrace Fremont, Alameda, California, 94536 United States","-122.01708002943","37.551165684558"," Alameda","",""
"Maple Cemetery","Berlin"," Connecticut"," United States","1165 Worthington Ridge Berlin, Hartford, Connecticut, 06037 United States","-72.750832","41.611111"," Hartford","",""
"Mack's Mill Cemetery","East Lyme"," Connecticut"," United States","48-298 Scott Road East Lyme, New London, Connecticut, 06333 United States","-72.25153","41.38055"," New London","",""
"Saint Francis Solano Catholic Cemetery","Sonoma"," California"," United States","600-680 E Napa St Sonoma, Sonoma, California, 95476 United States","-122.44606457857","38.29134009812"," Sonoma","",""
"Saint Francis Xavier Cemetery","Jamul"," California"," United States","14145 Campo Road Jamul, San Diego, California, 91935 United States","-116.87173447315","32.70330044704"," San Diego","",""
"Saint Catherine of Siena Catholic Cemetery","Martinez"," California"," United States","Martinez, Contra Costa, California, 94553 United States","-122.14578520475","38.017337759533"," Contra Costa","",""
"Saint Catherine of Siena Catholic Cemetery","Martinez"," California"," United States","Martinez, Contra Costa, California, 94553 United States","-122.14578520475","38.017337759533"," Contra Costa","",""
"Saint John The Baptist Catholic Church Cemetery","Folsom"," California"," United States","500 Sibley St Folsom, Sacramento, California, 95630 United States","-121.18023335733","38.672344022305"," Sacramento","",""
"Saint Joseph Catholic Cemetery","Rio Vista"," California"," United States"," Cemetery Dr Rio Vista, Solano, California, 94571 United States","-121.69841854233","38.160761230533"," Solano","",""
"Saint John Cemetery","San Mateo"," California"," United States","905 Oregon Ave San Mateo, San Mateo, California, 94402 United States 
                         
                    ","-122.33699944313","37.548270456153"," San Mateo","https://stjohnssanmateo.org/",""
"Saint Carmel Cemetery","Campo"," California"," United States","36210 BIA Road 10 Campo, San Diego, California, 91906 United States","-116.36488918399","32.650359972441"," San Diego","",""
"Saint Bartholomew Cemetery","Valley Center"," California"," United States","Cemetary Rd Valley Center, San Diego, California, 92082 United States","-116.9482791045","33.277136331257"," San Diego","",""
"Saint John Catholic Cemetery","Escalon"," California"," United States","17871 Carrolton Road Escalon, San Joaquin, California, 95320 United States","-121.07131259392","37.800050828075"," San Joaquin","",""
"Beulah Cemetery","Thorsby"," Alabama"," United States","1637-2165 Spearman Rd Thorsby, Chilton, Alabama, 35171 United States","-86.75118807883","32.893794394521"," Chilton","",""
"Saint Helena Cemetery","St Helena"," California"," United States","2461 Spring St St Helena, Napa, California, 94574 United States 
                         
                    ","-122.47475493522","38.492867862222"," Napa","http://www.sainthelenacemetery.com",""
"Saint Francis Cemetery","Interlaken"," California"," United States","2301-2369 California 152 Interlaken, Santa Cruz, California, 95076 United States","-121.74096757534","36.942331342511"," Santa Cruz","",""
"Beulah Cemetery","Roanoke"," Alabama"," United States","County Road 632 Roanoke, Randolph, Alabama, 36274 United States","-85.263275567038","33.266879377848"," Randolph","",""
"Saint Gregory Palamas Monastery Cemetery","Etna"," California"," United States","1307 Sawyers Bar Road Etna, Siskiyou, California, 96027 United States 
                         
                    ","-122.90055062771","41.448178379086"," Siskiyou","sgpm.goarch.org/Monastery",""
"Beulah Cemetery","Cuba"," Alabama"," United States","Charles Spur Rd Cuba, Sumter, Alabama, 36907 United States","-88.311312374607","32.330096353118"," Sumter","",""
"Betts Cemetery","Madison"," Alabama"," United States","100 Annapolis Ct Madison, Madison, Alabama, 35758 United States","-86.76620718228","34.721876728037"," Madison","",""
"Bethsalem Cemetery","Billingsley"," Alabama"," United States","2990 Chilton County Road 24 Billingsley, Chilton, Alabama, 36006 United States","-86.666929275415","32.720642336778"," Chilton","",""
"Bethsalem Cemetery","Boligee"," Alabama"," United States","Unnamed Rd Boligee, Greene, Alabama, 35443 United States","-88.028429933748","32.738069392911"," Greene","",""
"Saint Francis of Assisi","Warner Springs"," California"," United States","31652 Highway 79 Warner Springs, San Diego, California, 92086 United States","-116.63673064419","33.287579012123"," San Diego","",""
"Saint Dominic Cemetery","Benicia"," California"," United States","595 Hillcrest Ave Benicia, Solano, California, 94510 United States","-122.13995320503","38.058574983159"," Solano","",""
"Saint Boniface Cemetery","Banning"," California"," United States","Florian Street Banning, Riverside, California, 92220 United States","-116.88967224665","33.939318986006"," Riverside","",""
"Bethsaida Cemetery","Russellville"," Alabama"," United States","10350-10394 County Road 48 Russellville, Franklin, Alabama, 35654 United States","-87.556110910145","34.555075690149"," Franklin","",""
"Beulah Cemetery","Monroeville"," Alabama"," United States","Jimmie Hinson Rd Monroeville, Monroe, Alabama, 36460 United States","-87.220454061975","31.48923728789"," Monroe","",""
"Bethsadia Cemetery","Cullman"," Alabama"," United States","1293-1799 County Road 421 Cullman, Cullman, Alabama, 35057 United States","-86.910514034377","34.139031080522"," Cullman","",""
"Bethsaida Church","Louisville"," Alabama"," United States","Bethsaida Church Road Louisville, Barbour, Alabama, 36048 United States","-85.6055113483","31.91601557305"," Barbour","",""
"Bethlehem Number 2 Cemetery","Lawley"," Alabama"," United States","5697-5709 Alabama 219 Lawley, Perry, Alabama, 36793 United States","-87.109423841998","32.808167438972"," Perry","",""
"Saint Bartholomew's Episcopal Church Columbarium","San Diego"," California"," United States","16275 Pomerado Road San Diego, San Diego, California, 92128 United States 
                         
                    ","-117.05582831467","33.007778655205"," San Diego","www.stbartschurch.org",""
"Bethlehem West Church","Marbury"," Alabama"," United States","2650 County Road 131 Marbury, Elmore, Alabama, 36051 United States","-86.41258040096","32.677594750516"," Elmore","",""
"Saint Canice Cemetery","Nevada City"," California"," United States","West Broad Street Nevada City, Nevada, California United States","-121.02406391788","39.266178977025"," Nevada","",""
"Bethlehem Number 1 Cemetery","Centreville"," Alabama"," United States","Jones Rd Centreville, Perry, Alabama, 35042 United States","-87.115572905967","32.820218553975"," Perry","",""
"Bethlehem Missionary Baptist Church","Union Springs"," Alabama"," United States","10001 US Route 82 Union Springs, Bullock, Alabama, 36089 United States","-85.842607869251","32.097798607844"," Bullock","",""
"Beulah Cemetery","Dothan"," Alabama"," United States","3225 Headland Ave Dothan, Houston, Alabama, 36303 United States","-85.391270362478","31.276469865924"," Houston","",""
"Boney Bluff Cemetery","Fargo"," Georgia"," United States","Woodpecker Route Fargo, Echols, Georgia, 31631 United States","-82.671443448886","30.627888562112"," Echols","",""
"Bethlehem East Cemetery","Hanceville"," Alabama"," United States","721-725 County Road 541 Hanceville, Cullman, Alabama, 35077 United States","-86.73686233022","34.055723366102"," Cullman","",""
"Bonner Cemetery","Carrollton"," Georgia"," United States","1051 Bonner Goldmine Rd Carrollton, Carroll, Georgia, 30117 United States","-85.127266556342","33.49403261287"," Carroll","",""
"Bond Cemetery","Dry Branch"," Georgia"," United States","Marion Rd Dry Branch, Twiggs, Georgia, 31020 United States","-83.524013464949","32.737926357702"," Twiggs","",""
"Boones Creek Cemetery","St George"," Georgia"," United States","Boones Cr Rd St George, Charlton, Georgia, 31562 United States","-82.054299710311","30.57027074196"," Charlton","",""
"Bold Springs Cemetery","Cairo"," Georgia"," United States","Drew Rd Cairo, Grady, Georgia, 31728 United States","-84.102176084648","30.914826594461"," Grady","",""
"Bethsaida Cemetery","Boaz"," Alabama"," United States","2576-2692 Bethsaida Rd Boaz, Marshall, Alabama, 35957 United States","-86.12787871801","34.197577472124"," Marshall","",""
"Bold Springs Methodist Church Cemetery","Cairo"," Georgia"," United States","1127 Bold Springs Road Cairo, Grady, Georgia, 39828 United States","-84.102146594907","30.914888059087"," Grady","",""
"Bone Cemetery","Milledgeville"," Georgia"," United States","941 N Clark St Milledgeville, Baldwin, Georgia, 31061 United States","-83.234600705752","33.092512359387"," Baldwin","",""
"Bethlehem West Cemetery","Vinemont"," Alabama"," United States","1-107 County Road 1215 Vinemont, Cullman, Alabama, 35179 United States","-86.990841437314","34.271641192801"," Cullman","",""
"Bohanon Cemetery","Eastman"," Georgia"," United States","Georgia 230 Eastman, Pulaski, Georgia, 31023 United States","-83.383677565116","32.215243016168"," Pulaski","",""
"Boiling Springs Cemetery","East Dublin"," Georgia"," United States","952-984 Boiling Springs Road East Dublin, Laurens, Georgia, 31027 United States","-82.810052025493","32.635559379644"," Laurens","",""
"Boneville United Methodist Church","Dearing"," Georgia"," United States","2416 Boneville Road Dearing, McDuffie, Georgia United States","-82.44311414659","33.434198261239"," McDuffie","",""
"Bohanon Cemetery","Hawkinsville"," Georgia"," United States","Lower River Road Hawkinsville, Pulaski, Georgia, 31036 United States","-83.382417207387","32.210993057961"," Pulaski","",""
"Bethlehem Methodist Church Cemetery","Birmingham"," Alabama"," United States","1491 Allison Bonnett Dr Birmingham, Jefferson, Alabama, 35061 United States","-86.952132971761","33.458440855006"," Jefferson","",""
"Bobo Cemetery","Lindale"," Georgia"," United States","3687-3869 U.S. 27 Lindale, Floyd, Georgia, 30147 United States","-85.21382839847","34.157819190992"," Floyd","",""
"Bob Jones Family Cemetery","Sparta"," Georgia"," United States","Powell Grove Rd Sparta, Hancock, Georgia, 31087 United States","-83.128059","33.237221"," Hancock","",""
"Boatwright Cemetery","Wrens"," Georgia"," United States","Wrens, Jefferson, Georgia United States","-82.328888","33.10944"," Jefferson","",""
"Boatwright Cemetery","Mt Vernon"," Georgia"," United States","County Road 58 Mt Vernon, Wheeler, Georgia, 30445 United States","-82.650284","32.146671"," Wheeler","",""
"Boatwright Cemetery","Glenwood"," Georgia"," United States","315-511 County Road 177 Glenwood, Wheeler, Georgia, 30428 United States","-82.694644041089","32.179058701183"," Wheeler","",""
"Bonaventure Cemetery","Savannah"," Georgia"," United States","330 Bonaventure Rd. Savannah, Chatham, Georgia, 31404 United States 
                         
                    ","-81.046998961631","32.044709706036"," Chatham","http://www.bonaventurehistorical.org/",""
"Boardtown Cemetery","Cherry Log"," Georgia"," United States","Lucius Rd Cherry Log, Gilmer, Georgia, 30522 United States","-84.406258273035","34.821758235632"," Gilmer","",""
"Camp Springs Cemetery","Kingsland"," Arkansas"," United States","Bell Rd Kingsland, Cleveland, Arkansas, 71652 United States","-92.338789226709","33.877245973225"," Cleveland","",""
"Camp Cemeteries","Hensley"," Arkansas"," United States","Campbell Cemetery Rd Hensley, Pulaski, Arkansas, 72065 United States","-92.199173","34.51083"," Pulaski","",""
"Bogart United Methodist Church Cemetery","Bogart"," Georgia"," United States","130 North Church Street Bogart, Oconee, Georgia, 30622 United States","-83.531709433744","33.949932311437"," Oconee","",""
"Boiling Springs Primitabe Baptist Church Cemetery","Alpharetta"," Georgia"," United States","1250 Birmingham Rd Alpharetta, Fulton, Georgia, 30004 United States","-84.323338750567","34.167580354236"," Fulton","",""
"Camp Creek Cemetery","Grapevine"," Arkansas"," United States","Forest Road 9207 Grapevine, Grant, Arkansas, 72057 United States","-92.342599186692","34.251003066326"," Grant","",""
"Boiling Springs","Soperton"," Georgia"," United States","Old Molly Williamson Road Soperton, Treutlen, Georgia, 30457 United States","-82.466510467878","32.419478564432"," Treutlen","",""
"Calwell Chapel Cemetery","Malvern"," Arkansas"," United States","Chapel Cemetery Rd Malvern, Dallas, Arkansas, 72104 United States","-92.840651089745","34.121713771603"," Dallas","",""
"Calvary Cemetery","McCrory"," Arkansas"," United States","13801-14515 Arkansas 37 McCrory, Jackson, Arkansas, 72101 United States","-91.141451177904","35.370791554866"," Jackson","",""
"Calvary Cemetery","Brinkley"," Arkansas"," United States","300-398 E Maple St Brinkley, Monroe, Arkansas, 72021 United States","-91.182503","34.880829"," Monroe","",""
"Calvary Presbyterian Cemetery","Hermitage"," Arkansas"," United States","140-146 Johnsville Broad Rd Hermitage, Bradley, Arkansas, 71647 United States","-92.017783712394","33.370628838225"," Bradley","",""
"Camp United Methodist Church Cemetery, Camp, AR","South Fork"," Arkansas"," United States","5431 Highway 9 South Fork, Fulton, Arkansas, 72520 United States","-91.738644622799","36.410388617845"," Fulton","",""
"Calvary Cemetery","Pine Bluff"," Arkansas"," United States","4601-4799 W 15th Ave Pine Bluff, Jefferson, Arkansas, 71603 United States","-92.055","34.215"," Jefferson","",""
"Camp Nelson Confederate Cemetery","Oak Grove"," Arkansas"," United States","144 Rye Drive Oak Grove, Lonoke, Arkansas, 72023 United States","-91.98051","34.94608"," Lonoke","",""
"Callum Cemetery","Gentry"," Arkansas"," United States","Gentry, Benton, Arkansas, 72734 United States","-94.55056","36.304722"," Benton","",""
"Callaway Family Cemetery","Berlin"," Arkansas"," United States","Rawls Road Berlin, Ashley, Arkansas United States","-91.763","33.081"," Ashley","",""
"Calva Cemetery","Sherwood"," Arkansas"," United States","1208 Cornflower Ln Sherwood, Pulaski, Arkansas, 72120 United States","-92.21389","34.820831"," Pulaski","",""
"Lower City Cemetery","Falls Village"," Connecticut"," United States","485 Under Mountain Rd Falls Village, Litchfield, Connecticut, 06031 United States","-73.279167","41.932781"," Litchfield","",""
"Cameron Cemetery","Salem"," Arkansas"," United States","8392-8562 Samples Rd Salem, Saline, Arkansas, 72019 United States","-92.567417874441","34.637516499721"," Saline","",""
"Callaway Family Cemetery","Extra"," Arkansas"," United States","106 County Road 319 Extra, Ashley, Arkansas, 71646 United States","-91.76215","33.08495"," Ashley","",""
"Lufbery Memorial Park","Wallingford Center"," Connecticut"," United States","Lufberry Memorial Park Rd Wallingford Center, New Haven, Connecticut, 06492 United States","-72.841667","41.458611"," New Haven","",""
"Calvin Crossing","Marion"," Arkansas"," United States","345-399 Lawrence Road 739 Marion, Lawrence, Arkansas, 72410 United States","-91.058330493918","35.929882902404"," Lawrence","",""
"Calvary Cemetery","Hot Springs"," Arkansas"," United States","3rd Street and Greenwood Ave Hot Springs, Garland, Arkansas, 71913 United States","-93.062701212112","34.493818375636"," Garland","",""
"Calvary Cemetery","Texarkana"," Arkansas"," United States","3057-3499 Sanderson Ln Texarkana, Miller, Arkansas, 71854 United States","-94.013611","33.45417"," Miller","",""
"Calvary Cemetery","Big Rock Township"," Arkansas"," United States","3000-3098 Asher Avenue Big Rock Township, Pulaski, Arkansas, 72204 United States","-92.30792","34.73129"," Pulaski","",""
"Long Hill Cemetery","Derby"," Connecticut"," United States","72-98 Chapel St Derby, New Haven, Connecticut, 06418 United States","-73.073119873886","41.30515435913"," New Haven","",""
"Calvary Cemetery","Fort Smith"," Arkansas"," United States","701-799 Lexington Ave Fort Smith, Sebastian, Arkansas, 72901 United States","-94.416672","35.376389"," Sebastian","",""
"Long Pond Cemetery","Colchester"," Connecticut"," United States","1-11 Oconnell Road Exd Colchester, Middlesex, Connecticut, 06415 United States","-72.345833","41.518608"," Middlesex","",""
"Long Mountain Cemetery","New Milford"," Connecticut"," United States","14 Bass Rd New Milford, Litchfield, Connecticut, 06776 United States","-73.458255822473","41.634162173109"," Litchfield","",""
"Little Haddam Cemetery","East Haddam"," Connecticut"," United States","479-481 Connecticut 151 East Haddam, Middlesex, Connecticut, 06423 United States","-72.44722","41.479439"," Middlesex","",""
"Lower White Hills Cemetery","Shelton"," Connecticut"," United States","62-64 Maple Ave Shelton, Fairfield, Connecticut, 06484 United States","-73.138893","41.327221"," Fairfield","",""
"Long Hill Burial Ground","Shelton"," Connecticut"," United States","255-295 Long Hill Avenue Shelton, Fairfield, Connecticut, 06484 United States","-73.097963","41.305484"," Fairfield","",""
"Lockwood Cemetery","New Canaan"," Connecticut"," United States","1-99 Laurel Rd New Canaan, Fairfield, Connecticut, 06840 United States","-73.487221","41.17028"," Fairfield","",""
"Lonetown Cemetery","Redding"," Connecticut"," United States","171-187 Lonetown Rd Redding, Fairfield, Connecticut, 06896 United States","-73.390565829371","41.329865017125"," Fairfield","",""
"Lovett Cemetery","Sprague"," Connecticut"," United States","13-15 Hanover - Versailles Tpk Sprague, New London, Connecticut, 06330 United States","-72.050773","41.616239"," New London","",""
"Loyalty Cemetery","Fairfield"," Connecticut"," United States","80-220 Burroughs Rd Fairfield, Fairfield, Connecticut, 06824 United States","-73.245693625662","41.178417827241"," Fairfield","",""
"Long Society Cemetery","Preston"," Connecticut"," United States","49-57 Long Society Rd Preston, New London, Connecticut, 06365 United States","-72.035828","41.534721"," New London","",""
"Saint Ann Cemetery","Porterville"," California"," United States","401-447 W Gibbons Ave Porterville, Tulare, California, 93257 United States","-119.02924160879","36.03951296925"," Tulare","",""
"Litchfield Cemetery","Hampton"," Connecticut"," United States","45-63 Bigelow Rd Hampton, Windham, Connecticut, 06247 United States","-72.046273097338","41.775473938318"," Windham","",""
"Little City Cemetery","Higganum"," Connecticut"," United States","469-491 Little City Rd Higganum, Middlesex, Connecticut, 06441 United States","-72.586937","41.449718"," Middlesex","",""
"Lower Cemetery","Westbrook"," Connecticut"," United States","55-119 South Main Street Westbrook, Middlesex, Connecticut, 06498 United States","-72.452290830677","41.284732359618"," Middlesex","",""
"Long Ridge Union Cemetery","Stamford"," Connecticut"," United States","154 Erskine Rd Stamford, Fairfield, Connecticut, 06903 United States","-73.597346177869","41.148893949574"," Fairfield","",""
"Long Hill Cemetery","Trumbull"," Connecticut"," United States","52-68 Middlebrooks Ave Trumbull, Fairfield, Connecticut, 06611 United States","-73.21833","41.249168"," Fairfield","",""
"Saint Anthony Cemetery","Pescadero"," California"," United States","690-1246 Stage Rd Pescadero, San Mateo, California, 94060 United States","-122.38320594378","37.258860099162"," San Mateo","",""
"Lithuanian Cemetery","Waterbury"," Connecticut"," United States","1-67 Harpers Ferry Rd Waterbury, New Haven, Connecticut, 06705 United States","-73.0120324484406","41.5416686253943"," New Haven","",""
"Linwood Cemetery","Colchester"," Connecticut"," United States","1-213 Linwood Cemetery Rd Colchester, New London, Connecticut, 06415 United States","-72.341725593924","41.570425415384"," New London","",""
"Saint Andrew By the Sea United Methodist Church","San Clemente"," California"," United States","2001 Calle Frontera San Clemente, Orange, California United States","-117.62244","33.44083"," Orange","",""
"S D A Cemetery","Dinuba"," California"," United States","6401-6599 Kamm Ave Dinuba, Tulare, California, 93618 United States","-119.4307841045","36.53133927428"," Tulare","",""
"Russian River Cemetery District","Ukiah"," California"," United States","1000 Low Gap Road Ukiah, Mendocino, California, 95482 United States","-123.21797676609","39.162448305214"," Mendocino","",""
"Saint Augustine Catholic Cemetery","Pleasanton"," California"," United States","5750 Sunol Boulevard Pleasanton, Alameda, California, 94566 United States","-121.87991","37.64714"," Alameda","",""
"Saint Alphonsus Catholic Cemetery","Fairfield"," California"," United States","1901 Union Avenue Fairfield, Solano, California, 94533 United States","-122.0419657456","38.263126504791"," Solano","",""
"Ruoff-Thomas Cemetery","Jenner"," California"," United States","21756-21810 Coast Hwy Jenner, Sonoma, California, 95450 United States","-123.2861546677","38.540484376276"," Sonoma","",""
"Saint Andrew Abbey Cemetery","Valyermo"," California"," United States","31001 Valyermo Rd Valyermo, Los Angeles, California, 93544 United States","-117.86914072837","34.45326153468"," Los Angeles","",""
"Sacramento County Cemetery","Sacramento"," California"," United States","5100 Alcott Dr Sacramento, Sacramento, California, 95820 United States","-121.42387734134","38.528415619469"," Sacramento","",""
"Sacramento Memorial Lawn","Sacramento"," California"," United States","6100 Stockton Blvd Sacramento, Sacramento, California, 95824 United States 
                         
                    ","-121.44008991411","38.514903837077"," Sacramento","https://www.burialplanning.com/cemeteries/sacramento-memorial-lawn/",""
"Bethlehem Church Cemetery","Millport"," Alabama"," United States","Bill Taylor Rd Millport, Pickens, Alabama, 35576 United States","-88.069950592184","33.475836718641"," Pickens","",""
"Russian Molokan Cemetery","Commerce"," California"," United States","7109-7147 Slauson Avenue Commerce, Los Angeles, California, 90040 United States","-118.135284174274","33.9809839070919"," Los Angeles","",""
"Bethlehem Church Cemetery","Lapine"," Alabama"," United States","13600-13698 Butler Mill Road Lapine, Montgomery, Alabama United States","-86.343305727156","32.055871274622"," Montgomery","",""
"Sacramento Valley National Cemetery","Dixon"," California"," United States","5810 Midway Rd Dixon, Solano, California, 95620 United States 
                         
                    ","-121.87784631374","38.414048811295"," Solano","http://www.cem.va.gov/CEM/cems/nchp/sacramento.asp",""
"Sacramento Historic City Cemetery","Sacramento"," California"," United States","1000 Broadway Sacramento, Sacramento, California, 95818 United States 
                         
                    ","-121.50138381481","38.56175698981"," Sacramento","https://www.historicoldcitycemetery.org",""
"Bethlehem Church","Midway"," Alabama"," United States","Old Batesville Road Midway, Barbour, Alabama, 36053 United States","-85.245895532682","31.946784178895"," Barbour","",""
"Russian Sectarian Cemetery","Daly City"," California"," United States","5082-5096 Junipero Serra Blvd Daly City, San Mateo, California, 94014 United States","-122.46388912012","37.667516578472"," San Mateo","",""
"Bethlehem Church","Clayton"," Alabama"," United States","Dan Snead Road & Bethlehem Church Road Clayton, Barbour, Alabama, 36016 United States","-85.530511126925","31.815663202118"," Barbour","",""
"Bethlehem Church","Five Points"," Alabama"," United States","3435 Chambers County 288 Five Points, Chambers, Alabama, 36855 United States","-85.22337660549","33.057465780579"," Chambers","",""
"Bethlehem Church","Hayden"," Alabama"," United States","Bethlehem Church Road Hayden, Blount, Alabama, 35180 United States","-86.801560668911","33.90996982289"," Blount","",""
"Rough and Ready Cemetery","Rough and Ready"," California"," United States","13850 Jerome Rd Rough and Ready, Nevada, California, 95975 United States","-121.13539823081","39.231719862997"," Nevada","",""
"Bethlehem Cemetery","Talladega"," Alabama"," United States","1281-1539 Bethlehem Church Rd Talladega, Clay, Alabama, 35160 United States","-86.01881339258","33.243749674922"," Clay","",""
"Bethlehem Church","Trafford"," Alabama"," United States","251 Dallas Loop Road Trafford, Blount, Alabama, 35172 United States","-86.663560835996","33.842927748682"," Blount","",""
"Bethlehem Cemetery","Dodge City"," Alabama"," United States","50-98 County Road 245 Dodge City, Cullman, Alabama, 35077 United States","-86.880211482","34.063491226885"," Cullman","",""
"Bethlehem Cemetery","Guntersville"," Alabama"," United States","4949-5087 Wyeth Mountain Rd Guntersville, Marshall, Alabama, 35976 United States","-86.258768535031","34.336813660405"," Marshall","",""
"Roselawn Cemetery","Livermore"," California"," United States","1240 N. Livermore Avenue Livermore, Alameda, California United States","-121.7745397963","37.6954333838"," Alameda","",""
"Bethlehem Cemetery","Sawyerville"," Alabama"," United States","County Road 92 Sawyerville, Hale, Alabama, 36776 United States","-87.743013538323","32.7515373048"," Hale","",""
"Rosedale Cemetery","Los Angeles"," California"," United States","1701-1899 Walton Ave Los Angeles, Los Angeles, California, 90006 United States 
                         
                    ","-118.296112","34.042221"," Los Angeles","http://www.stsophia.org/",""
"Rose Memorial Park Association Inc","Fort Bragg"," California"," United States","760 North Franklin Street Fort Bragg, Mendocino, California, 95437 United States","-123.80267","39.451867"," Mendocino","",""
"Bethlehem Cemetery","Ward"," Alabama"," United States","County Road 42 Ward, Choctaw, Alabama, 36922 United States","-88.082965415267","32.287381520369"," Choctaw","",""
"Bethlehem Cemetery","Russellville"," Alabama"," United States","County Road 37 Russellville, Franklin, Alabama, 35654 United States","-87.626177462501","34.558645867955"," Franklin","",""
"Roseville Public Cemetery District","Roseville"," California"," United States","421 Berry Street Roseville, Placer, California, 95678 United States","-121.272192712","38.761115286992"," Placer","",""
"Bethlehem Cemetery","Linden"," Alabama"," United States","Unnamed Rd Linden, Marengo, Alabama, 36748 United States","-87.793648547869","32.168491643715"," Marengo","",""
"Bethlehem Cemetery","Elba"," Alabama"," United States","270 County Road 421 Elba, Coffee, Alabama, 36323 United States","-86.081067498766","31.335448876745"," Coffee","",""
"Bethlehem Cemetery","Tuskegee"," Alabama"," United States","12218-12236 County Road 45 Tuskegee, Macon, Alabama, 36083 United States","-85.675518650035","32.281842020828"," Macon","",""
"Bethlehem Cemetery","Boligee"," Alabama"," United States","Unnamed Rd Boligee, Greene, Alabama, 35443 United States","-87.955559","32.729172"," Greene","",""
"Blunt Cemetery","Molena"," Georgia"," United States","278-298 Daniel Rd Molena, Pike, Georgia, 30258 United States","-84.507217","33.01889"," Pike","",""
"Blundale Cemetery","Swainsboro"," Georgia"," United States","Blundale Church Rd Swainsboro, Emanuel, Georgia, 30401 United States","-82.395849475527","32.740368646056"," Emanuel","",""
"Blythe United Methodist Church Cemetery","Blythe"," Georgia"," United States","307 Church Street Blythe, Richmond, Georgia, 30805 United States","-82.203169487294","33.298264562565"," Richmond","",""
"Bluffton Cemetery","Bluffton"," Georgia"," United States","Ft Gaines Rd Bluffton, Clay, Georgia, 31724 United States","-84.873339728836","31.525934957976"," Clay","",""
"Bethlehem Cemetery","Eutaw"," Alabama"," United States","1339-1375 Alabama 14 Eutaw, Greene, Alabama, 35462 United States","-87.926683507936","32.87178714324"," Greene","",""
"Bethlehem Cemetery","Notasulga"," Alabama"," United States","Cemetery Rd Notasulga, Macon, Alabama, 36866 United States","-85.686458905678","32.568553526726"," Macon","",""
"Blythe Baptist Church Cemetery","Blythe"," Georgia"," United States","2010 County Line Road Blythe, Richmond, Georgia, 30805 United States","-82.19603170425","33.289316002874"," Richmond","",""
"Bluff Springs Cemetery","Lumpkin"," Georgia"," United States","Old Bluff Springs Rd Lumpkin, Stewart, Georgia, 31815 United States","-84.892776","32.062222"," Stewart","",""
"Bluff Creek Cemetery","Pineview"," Georgia"," United States","Fire Road 506 Pineview, Pulaski, Georgia, 31071 United States","-83.461435018986","32.142746111656"," Pulaski","",""
"Bluewater Church Cemetery","Dexter"," Georgia"," United States","2666 US Route 319 Dexter, Laurens, Georgia, 31019 United States","-82.945009259304","32.45153206824"," Laurens","",""
"Bethlehem Cemetery","New Site"," Alabama"," United States","11510-16856 Alabama 49 New Site, Tallapoosa, Alabama, 36256 United States","-85.767415519812","33.044739136161"," Tallapoosa","",""
"Blue Springs Cemetery","Albany"," Georgia"," United States","Blue Springs Road Albany, Dougherty, Georgia, 31701 United States","-84.158249544143","31.455820218851"," Dougherty","",""
"Blounts Chapel Cemetery","Bartow"," Georgia"," United States","0 US Route 221 Bartow, Jefferson, Georgia, 30413 United States","-82.478058","32.853889"," Jefferson","",""
"Blue Springs Cemetery","Hamilton"," Georgia"," United States","Blue Springs Rd Hamilton, Harris, Georgia, 31811 United States","-84.952814991499","32.731359065537"," Harris","",""
"Bethlehem Cemetery","Red Level"," Alabama"," United States","U.S. 84 Red Level, Covington, Alabama, 36474 United States","-86.608637087672","31.366596536336"," Covington","",""
"Blue Cemetery","Brunswick"," Georgia"," United States","Myers Hill Rd Brunswick, Glynn, Georgia, 31523 United States","-81.62056","31.147779"," Glynn","",""
"Blount Peavy Cemetery","Greenville"," Georgia"," United States","2186-2394 Hogansville Hwy Greenville, Meriwether, Georgia, 30222 United States","-84.741386","33.052219"," Meriwether","",""
"Blount Crossing Cemetery","Brunswick"," Georgia"," United States","Blount Crossing Rd Brunswick, Glynn, Georgia, 31523 United States","-81.663567660562","31.279151975767"," Glynn","",""
"Blitch Cemetery","Ellabell"," Georgia"," United States","4050-4470 U.S. 80 Ellabell, Bryan, Georgia, 31308 United States","-81.440559526882","32.197958682538"," Bryan","",""
"Blanton Family Cemetery","Talbotton"," Georgia"," United States","Kelly Road Kelly Road Talbotton, Talbot, Georgia, 31827 United States","-84.500683892297","32.726626857272"," Talbot","",""
"Blanton Cemetery","Griffin"," Georgia"," United States","1536 Blanton Mill Rd Griffin, Spalding, Georgia, 30224 United States","-84.427498","33.226391"," Spalding","",""
"Blount Cemetery","Greenville"," Georgia"," United States","1291-1651 Hogansville Hwy Greenville, Meriwether, Georgia, 30222 United States","-84.729862653953","33.047457534822"," Meriwether","",""
"Bloodworth Cemetery","Mauk"," Georgia"," United States","Mt Nebo Church Rd Mauk, Taylor, Georgia, 31058 United States","-84.347437459306","32.460654301333"," Taylor","",""
"Callan Cemetery","Dardanelle"," Arkansas"," United States","Unnamed Rd Dardanelle, Yell, Arkansas, 72834 United States","-93.19194","35.24667"," Yell","",""
"Blockers Chapel Cemetery, Toombs, Georgia","Toombs"," Georgia"," United States","Thompson Pond Road Toombs, Georgia, 30474 United States","-82.438925283693","32.252362217929","","",""
"Callahan Cemetery","Booneville"," Arkansas"," United States","383 Lowder Rd Booneville, Logan, Arkansas, 72927 United States","-93.850455617756","35.155182412099"," Logan","",""
"Caledonia Cemetery","El Dorado"," Arkansas"," United States","1876-1908 Wingfield Lake Rd El Dorado, Union, Arkansas, 71730 United States","-92.659172","33.062778"," Union","",""
"Callaway Cemetery","Arkadelphia"," Arkansas"," United States","County Road 75 Arkadelphia, Clark, Arkansas, 71923 United States","-93.246938685842","34.13421658023"," Clark","",""
"Caldwell Cemetery","Jessieville"," Arkansas"," United States","Caldwell Cemetery Ln Jessieville, Garland, Arkansas, 71949 United States","-93.29226326185","34.736989503659"," Garland","",""
"Caldwell Cemetery","Jonesboro"," Arkansas"," United States","Rutherford Rd Jonesboro, Craighead, Arkansas, 72401 United States","-90.697619549361","35.966490207111"," Craighead","",""
"Caldwell Cemetery","Jonesboro"," Arkansas"," United States","County Road 780 Jonesboro, Craighead, Arkansas, 72401 United States","-90.697502","35.965561"," Craighead","",""
"Calaway Cemetery","Thornton"," Arkansas"," United States","County Road 64 Thornton, Calhoun, Arkansas, 71766 United States","-92.494101202925","33.719820317257"," Calhoun","",""
"Blue Pond Cemetery","Kingston"," Georgia"," United States","2-538 Kerce Rd NE Kingston, Floyd, Georgia, 30145 United States","-85.055597854815","34.273244188319"," Floyd","",""
"Byerly Cemetery","Atkins"," Arkansas"," United States","River Bottom Road Atkins, Pope, Arkansas, 72823 United States","-92.885277","35.183891"," Pope","",""
"Caid Cemetery","Leslie"," Arkansas"," United States","County Road 42 Leslie, Searcy, Arkansas, 72645 United States","-92.621941","35.826672"," Searcy","",""
"Cadron Valley Cemetery","Greenbrier"," Arkansas"," United States","331 Wilson Bottoms Rd Greenbrier, Faulkner, Arkansas, 72058 United States","-92.29140086531","35.219540736074"," Faulkner","",""
"Byron Cemetery ","Salem"," Arkansas"," United States","9636 Byron Road Salem, Fulton, Arkansas United States","-91.970294","36.322368"," Fulton","",""
"Byers Cemetery","Alma"," Arkansas"," United States","2805-3601 Collum Ln W Alma, Crawford, Arkansas, 72921 United States","-94.259561937353","35.491020439401"," Crawford","",""
"Butler Cemetery","Ethel"," Arkansas"," United States","72 Refuge Rd Ethel, Arkansas, Arkansas, 72048 United States","-91.162954147645","34.265568784357"," Arkansas","",""
"Buttram Cemetery","Pea Ridge"," Arkansas"," United States","13079-13343 Lee Town Rd Pea Ridge, Benton, Arkansas, 72751 United States","-94.088511868824","36.44071871759"," Benton","",""
"Butler Cemetery","Star City"," Arkansas"," United States","County Road 29 Star City, Lincoln, Arkansas, 71667 United States","-91.788063","33.896671"," Lincoln","",""
"Butler Cemetery","Subiaco"," Arkansas"," United States","9397 Old Military Rd Subiaco, Logan, Arkansas, 72865 United States","-93.571388","35.304722"," Logan","",""
"Bush Cemetery","Star City"," Arkansas"," United States","Unnamed Rd Star City, Lincoln, Arkansas, 71667 United States","-91.858887","33.888329"," Lincoln","",""
"Lime Rock Cemetery","Salisbury"," Connecticut"," United States","30 Dugway Road Salisbury, Litchfield, Connecticut, 06031 United States","-73.378040835261","41.930936389452"," Litchfield","",""
"Lewis Cemetery","North Stonington"," Connecticut"," United States","276 Boom Bridge Road North Stonington, New London, Connecticut, 06359 United States","-71.816654","41.424308"," New London","",""
"Cain Cemetery","Mountainburg"," Arkansas"," United States","10687-10761 Cain Loop Mountainburg, Crawford, Arkansas, 72946 United States","-94.167800171019","35.584709018983"," Crawford","",""
"Liberty Hill Cemetery","Lebanon"," Connecticut"," United States","358-362 Trumbull Hwy Lebanon, New London, Connecticut, 06249 United States","-72.24611594442","41.65669411332"," New London","",""
"Butlerville Cemetery","Ward"," Arkansas"," United States","10853-10917 Arkansas 38 Ward, Lonoke, Arkansas, 72176 United States","-91.835603306721","34.975114539767"," Lonoke","",""
"Lester Cemetery","Gales Ferry"," Connecticut"," United States","Gales Ferry, New London, Connecticut, 06335 United States","-72.050196372421","41.42252280316"," New London","",""
"Lee Cemetery","Ledyard"," Connecticut"," United States","138 Iron Street Ledyard, New London, Connecticut, 06339 United States","-71.993697","41.448127"," New London","",""
"Levi Chapman Cemetery","Norwich"," Connecticut"," United States","26 Whalehead Road Norwich, New London, Connecticut, 06335 United States","-72.039567423692","41.442436062294"," New London","",""
"Butler Creek Cemetery","Sulphur Springs"," Arkansas"," United States","20385 State Line Rd Sulphur Springs, Benton, Arkansas, 72768 United States","-94.480003","36.495831"," Benton","",""
"Butler Cemetery","Mabelvale"," Arkansas"," United States","17322 Vimy Ridge Rd Mabelvale, Saline, Arkansas, 72103 United States","-92.417778","34.593891"," Saline","",""
"Laurel Hill Cemetery","Chester Center"," Connecticut"," United States","Road to Laurel Hill Cemetary Chester Center, Middlesex, Connecticut, 06412 United States","-72.447052","41.403541"," Middlesex","",""
"Leads Cemetery","Darien"," Connecticut"," United States","60-62 Hoyt St Darien, Fairfield, Connecticut, 06820 United States","-73.511877939437","41.08185585828"," Fairfield","",""
"Lawn Cemetery","Shelton"," Connecticut"," United States","12-198 Lane St Shelton, Fairfield, Connecticut, 06484 United States","-73.143608","41.29417"," Fairfield","",""
"Lewis Cemetery","Voluntown"," Connecticut"," United States","28 Bassett Mills Road Voluntown, New London, Connecticut, 06384 United States","-71.81406","41.58682"," New London","",""
"Latimer Hill Cemetery","Bloomfield"," Connecticut"," United States","10-34 Hill Farm Rd Bloomfield, Hartford, Connecticut, 06002 United States","-72.728915328537","41.83548569264"," Hartford","",""
"Leonard Cemetery","Jewett City"," Connecticut"," United States","168-172 Bethel Rd Jewett City, New London, Connecticut, 06351 United States","-71.93","41.571941"," New London","",""
"Lathrop Cemetery","Salem"," Connecticut"," United States","400-474 Connecticut 354 Salem, New London, Connecticut, 06420 United States","-72.249443","41.51194"," New London","",""
"Latham Hallet Cemetery","Ledyard"," Connecticut"," United States","958 Shewville Road Ledyard, New London, Connecticut, 06339 United States","-71.990254","41.474987"," New London","",""
"Leech Cemetery","East Lyme"," Connecticut"," United States","East Lyme, New London, Connecticut, 06333 United States","-72.274866317791","41.4185130341446"," New London","",""
"Roscoe Cemetery","Petrolia"," California"," United States","1225 Roscoe Road Petrolia, Humboldt, California, 95558 United States","-124.1792202749","40.260843698858"," Humboldt","",""
"Ledyard Union Cemetery","Ledyard"," Connecticut"," United States","383 Colonel Ledyard Highway Ledyard, New London, Connecticut, 06339 United States","-71.996881133765","41.405153723116"," New London","",""
"Ledyard Center Cemetery","Ledyard"," Connecticut"," United States","1903-1945 Highway 117 Ledyard, New London, Connecticut, 06339 United States","-72.0139088343239","41.4362420592577"," New London","",""
"Laysville Cemetery","Old Lyme"," Connecticut"," United States","180 Boston Post Road Old Lyme, New London, Connecticut, 06371 United States","-72.296467244215","41.349418972961"," New London","",""
"Laure Hill Cemetery","Brookfield"," Connecticut"," United States","100-106 Laurel Hill Rd Brookfield, Fairfield, Connecticut, 06804 United States","-73.415283","41.483608"," Fairfield","",""
"Lawncroft Cemetery","Fairfield"," Connecticut"," United States","300-474 Burroughs Rd Fairfield, Fairfield, Connecticut, 06432 United States","-73.245003","41.18111"," Fairfield","",""
"Rose Hills Memorial Park","Whittier"," California"," United States","3888 Workman Mill Rd Whittier, Los Angeles, California, 90601 United States 
                         
                    ","-118.02865189112","34.014309013933"," Los Angeles","http://www.rosehills.com/dm20/en_US/main/rh/index.page",""
"Rolling Hills Memorial Park","El Sobrante"," California"," United States","4300 Hilltop Dr El Sobrante, Contra Costa, California, 94803 United States 
                         
                    ","-122.31573568852","37.971935417415"," Contra Costa","http://www.rollinghillsmemorialpark.com/",""
"Roosevelt Memorial Park","Los Angeles"," California"," United States","18255 S Vermont Ave Los Angeles, Los Angeles, California, 90248 United States","-118.294724","33.864441"," Los Angeles","",""
"Rohnerville Pioneer Cemetery","Fortuna"," California"," United States","461 Kendall Court Fortuna, Humboldt, California, 95540 United States","-124.13347077359","40.573359334009"," Humboldt","",""
"Ronald Reagan Presidential Library","Simi Valley"," California"," United States","40 Presidential Dr Simi Valley, Ventura, California United States 
                         
                    ","-118.819027","34.259593"," Ventura","https://www.reaganfoundation.org/library-museum/permanent-exhibitions/memorial/",""
"Rockville Cemetery","Suisun Valley"," California"," United States","4219 Suisun Valley Rd Suisun Valley, Solano, California, 94534 United States 
                         
                    ","-122.12139389814","38.248869601782"," Solano","http://www.solanocemeteries.us/rockville.htm",""
"Roberts Ferry Cemetery","Waterford"," California"," United States","18908-20498 California 132 Waterford, Stanislaus, California, 95386 United States","-120.63001752779","37.640627103442"," Stanislaus","",""
"Rocklin Cemetery","Rocklin"," California"," United States","4090 Kannasto Street Rocklin, Placer, California, 95677 United States","-121.23482776287","38.781784963729"," Placer","",""
"Rodigues Cemetery","Oro Grande"," California"," United States","15221 Olive St Oro Grande, San Bernardino, California, 92368 United States","-117.33067486651","34.600488534587"," San Bernardino","",""
"Rose Hill Cemetery","Pittsburg"," California"," United States","Nortonville Rd Pittsburg, Contra Costa, California, 94565 United States","-121.87136006512","37.957713282104"," Contra Costa","",""
"Ridgeville Cemetery","Trinity Center"," California"," United States","51 Ridgeville Rd Trinity Center, Trinity, California, 96091 United States","-122.802223","40.863331"," Trinity","",""
"Ripon Cemetery","Ripon"," California"," United States","320 North Stockton Avenue Ripon, San Joaquin, California, 95366 United States","-121.12292472067","37.742061557737"," San Joaquin","",""
"Rio Vista Oddfellows and Masonic Cemetery","Rio Vista"," California"," United States","1016 State Highway 12 Rio Vista, Solano, California, 94571 United States","-121.69965860084","38.163931100968"," Solano","",""
"Riverview Cemetery","Brawley"," California"," United States","4700 Hurley Road Brawley, Imperial, California, 92227 United States 
                         
                    ","-115.54189730564","32.992893865788"," Imperial","https://www.riverviewcemeterydistrict.com/",""
"Riverview Cemetery","Needles"," California"," United States","101-199 San Clemente St Needles, San Bernardino, California, 92363 United States","-114.59900108731","34.823206695172"," San Bernardino","",""
"Riverside National Cemetery","Riverside"," California"," United States","22495 Van Buren Blvd. Riverside, Riverside, California, 92508 United States 
                         
                    ","-117.276618","33.884738"," Riverside","http://www.cem.va.gov/CEM/cems/nchp/riverside.asp",""
"Bethlehem Cemetery","Heflin"," Alabama"," United States","626-1038 County Road 77 Heflin, Cleburne, Alabama, 36264 United States","-85.646652359624","33.576743224979"," Cleburne","",""
"Bethlehem Cemetery","Gallant"," Alabama"," United States","10684-10826 Gallant Rd Gallant, Etowah, Alabama, 35972 United States","-86.266587070657","33.982587606591"," Etowah","",""
"Yucca Cemetery","Kingman"," Arizona"," United States","305 East Oak Street Kingman, Mohave, Arizona, 86401 United States","-114.151948","34.876055"," Mohave","",""
"Bethlehem Cemetery","Pine Apple"," Alabama"," United States","County Road 29 Pine Apple, Monroe, Alabama, 36768 United States","-86.990345559566","31.765062718351"," Monroe","",""
"Bethlehem Cemetery","Sawyerville"," Alabama"," United States","County Road 92 Sawyerville, Hale, Alabama, 36776 United States","-87.764982051881","32.75093398881"," Hale","",""
"Bethlehem Cemetery","Double Springs"," Alabama"," United States","Winston County 8 Double Springs, Winston, Alabama, 35553 United States","-87.276603291719","34.042138603631"," Winston","",""
"Rialto Park Cemetery","Rialto"," California"," United States","200 N Willow Ave Rialto, San Bernardino, California, 92376 United States","-117.37571867991","34.102363883877"," San Bernardino","",""
"Yuma Pioneer Cemetery","Yuma"," Arizona"," United States","201-499 East 12th Street Yuma, Yuma, Arizona, 85364 United States","-114.61828583069","32.703810411242"," Yuma","",""
"Bethlehem Cemetery","Headland"," Alabama"," United States","1812982-2227470 Alabama 134 Headland, Henry, Alabama, 36345 United States","-85.28864876331","31.357312302524"," Henry","",""
"Resurrection Cemetery","Montebello"," California"," United States","966 N Potrero Grande dr  Montebello, Los Angeles, California, 90640 United States","-118.09944","34.04167"," Los Angeles","",""
"Bethlehem Cemetery","Athens"," Alabama"," United States","Bethlehem Rd Athens, Limestone, Alabama, 35611 United States","-87.055025036774","34.711228243739"," Limestone","",""
"Bethlehem Cemetery","Jackson"," Alabama"," United States","2445 Bethlehem Rd Jackson, Clarke, Alabama, 36545 United States","-87.942913849518","31.630046442309"," Clarke","",""
"Bethlehem Cemetery","Hartselle"," Alabama"," United States","645 Hwy 36 E Hartselle, Morgan, Alabama, 35640 United States","-86.876124798321","34.447533801065"," Morgan","",""
"Bethlehem Cemetery","Hamilton"," Alabama"," United States","County Road 134 Hamilton, Marion, Alabama, 35570 United States","-88.075109023787","34.221945395143"," Marion","",""
"Bethesda Churchyard Cemetery","Gordo"," Alabama"," United States","339-399 County Road 63 Gordo, Pickens, Alabama, 35466 United States","-87.973206520585","33.105750230861"," Pickens","",""
"Bethesda Cemetery","Monroeville"," Alabama"," United States","Conecuh County 20 Monroeville, Conecuh, Alabama, 36460 United States","-87.134389510741","31.482592685836"," Conecuh","",""
"Young Cemetery","Young"," Arizona"," United States","Broken Trail Young, Gila, Arizona, 85554 United States","-110.93934233861","34.102466962212"," Gila","",""
"Bethesda Cemetery","Ramer"," Alabama"," United States","Peake Rd Ramer, Montgomery, Alabama, 36069 United States","-85.998386907159","32.079308032406"," Montgomery","",""
"Yavapai County Cemetery","Prescott"," Arizona"," United States","803 Ainsworth Drive Prescott, Yavapai, Arizona, 86301 United States","-112.48032169565","34.561705610574"," Yavapai","",""
"Bethesda Baptist Church","Prattville"," Alabama"," United States","1202 Autauga County 19 Prattville, Autauga, Alabama, 36067 United States","-86.702382059805","32.52986205808"," Autauga","",""
"Bethlehem Cemetery","Midland City"," Alabama"," United States","191 Bethlehem Rd Midland City, Houston, Alabama, 36350 United States","-85.484555807282","31.256686714845"," Houston","",""
"Bethesda Cemetery","Marion"," Alabama"," United States","Alvin Carter Rd Marion, Perry, Alabama, 36756 United States","-87.308364212149","32.754527465063"," Perry","",""
"Bethena Church Cemetery","Graham"," Alabama"," United States","County Road 435 Graham, Randolph, Alabama, 36263 United States","-85.340656664896","33.458944357019"," Randolph","",""
"Bethlehem Cemetery","Fayette"," Alabama"," United States","2-380 Bethlehem Cir Fayette, Fayette, Alabama, 35555 United States","-87.800386637811","33.747705985428"," Fayette","",""
"Bethlehem Cemetery","Oxford"," Alabama"," United States","7110 McIntosh Rd Oxford, Calhoun, Alabama, 36203 United States","-85.769608047035","33.58039822688"," Calhoun","",""
"Blakely Cemetery","Blakely"," Georgia"," United States","Chattahoochee Ave Blakely, Early, Georgia, 31723 United States","-84.938889","31.372219"," Early","",""
"Bland Cemetery","Milledgeville"," Georgia"," United States","2675 Vinson Hwy SE Milledgeville, Baldwin, Georgia, 31061 United States","-83.193352950932","33.001282420881"," Baldwin","",""
"Blanchard Cemetery","Appling"," Georgia"," United States","3304-3360 Ray Owens Rd Appling, Columbia, Georgia, 30802 United States","-82.339885398196","33.627693744451"," Columbia","",""
"Blairsville Cemetery","Blairsville"," Georgia"," United States","224 Dockery Dr Blairsville, Union, Georgia, 30512 United States","-83.961880768231","34.872971888097"," Union","",""
"Bethesda Cemetery","Eclectic"," Alabama"," United States","Unnamed Rd Eclectic, Coosa, Alabama, 36024 United States","-86.111682375753","32.783288315912"," Coosa","",""
"Blackwell Cemetery","Ringgold"," Georgia"," United States","47 Major Ridge Rd Ringgold, Catoosa, Georgia, 30736 United States","-85.165833","34.98444"," Catoosa","",""
"Blalock Cemetery","Thomasville"," Georgia"," United States","Thomasville, Thomas, Georgia United States","-84.068329","30.68639"," Thomas","",""
"Bethlehem Baptist Church Cemetery","Boaz"," Alabama"," United States","150 Liberty Hill Road Boaz, Etowah, Alabama, 35956 United States","-86.048731793933","34.184016874672"," Etowah","",""
"Blackshire Cemetery","Smithville"," Georgia"," United States","Smithville, Lee, Georgia, 31787 United States","-84.278328","31.97333"," Lee","",""
"Blair-Miller Cemetery","Smyrna"," Georgia"," United States","4100 W Cooper Lake Dr SE Smyrna, Cobb, Georgia, 30082 United States","-84.541107","33.847778"," Cobb","",""
"Blackshear Cemetery","Blackshear"," Georgia"," United States","E Park St Blackshear, Pierce, Georgia, 31516 United States","-82.235167699523","31.306109681614"," Pierce","",""
"Blackman Cemetery","Milner"," Georgia"," United States","616-642 Liberty Hill Rd Milner, Lamar, Georgia, 30257 United States","-84.159464689863","33.131170073086"," Lamar","",""
"Blackwood Cemetery","Calhoun"," Georgia"," United States","Morrow Rd SE Calhoun, Gordon, Georgia, 30701 United States","-84.906861137949","34.455536092744"," Gordon","",""
"Black Pioneers Cemetery","Euharlee"," Georgia"," United States","Covered Bridge Road Southwest Euharlee, Bartow, Georgia, 30120 United States","-84.933894693594","34.147722505527"," Bartow","",""
"Black Springs Baptist Churchyard","Milledgeville"," Georgia"," United States","631-649 Georgia 22 Milledgeville, Baldwin, Georgia, 31061 United States","-83.145244555664","33.104437595102"," Baldwin","",""
"Black House Cemetery","Wray"," Georgia"," United States","Georgia 117 Wray, Telfair, Georgia, 31798 United States","-83.010678360181","31.824804774905"," Telfair","",""
"Black Memorial Cemetery","Gray"," Georgia"," United States","101 Greene Settlement Road Gray, Jones, Georgia, 31032 United States","-83.5616664333","33.000368288484"," Jones","",""
"Black Rock AME Church Cemetery","Tignall"," Georgia"," United States","359-499 South Hulin Avenue Tignall, Wilkes, Georgia, 30668 United States","-82.742857242","33.856571599426"," Wilkes","",""
"Bland Cemetery","Statesboro"," Georgia"," United States","8940 West Side Rd Statesboro, Bulloch, Georgia, 30458 United States","-81.925340952766","32.485361124666"," Bulloch","",""
"Burton Cemetery","Newport"," Arkansas"," United States","Jackson 125 Newport, Jackson, Arkansas, 72112 United States","-91.163612","35.486111"," Jackson","",""
"Black Hammock Cemetery","Waverly"," Georgia"," United States","Black Hammock Rd Waverly, Camden, Georgia, 31565 United States","-81.521942","31.04528"," Camden","",""
"Burrow Cemetery","Lake City"," Arkansas"," United States","2105-2199 County Road 96 Lake City, Craighead, Arkansas, 72437 United States","-90.411942","35.891392"," Craighead","",""
"Busby Cemetery","Lexa"," Arkansas"," United States","6000-6554 Arkansas 242 Lexa, Phillips, Arkansas, 72355 United States","-90.701668","34.59861"," Phillips","",""
"Burris Cemetery","Green Forest"," Arkansas"," United States","Unnamed Rd Green Forest, Carroll, Arkansas, 72638 United States","-93.480827","36.36528"," Carroll","",""
"Black Creek Church","Commerce"," Georgia"," United States","1207 Blacks Creek Church Road Commerce, Banks, Georgia, 30530 United States","-83.395721423414","34.197801652765"," Banks","",""
"Blairsville Cemetery","Blairsville"," Georgia"," United States","Hughes St Blairsville, Union, Georgia, 30512 United States","-83.954864960425","34.87680341632"," Union","",""
"Burr Cemetery","Warm Springs"," Arkansas"," United States","Unnamed Rd Warm Springs, Randolph, Arkansas, 72478 United States","-91.015282","36.466671"," Randolph","",""
"Burt Cemetery","Charleston"," Arkansas"," United States","1800-2278 E Main St Charleston, Franklin, Arkansas, 72933 United States","-94.020290628311","35.297860014755"," Franklin","",""
"Burrell Cemetery","Ozark"," Arkansas"," United States","Ozark, Franklin, Arkansas, 72949 United States","-93.834167","35.768059"," Franklin","",""
"Blackwell Cemetery","Marietta"," Georgia"," United States","2647 Bob Bettis Rd Marietta, Cobb, Georgia, 30066 United States","-84.503480687926","34.014806646519"," Cobb","",""
"Burnt School House Cemetery","Norfork"," Arkansas"," United States","285-289 County Road 112 Norfork, Baxter, Arkansas, 72658 United States","-92.360042584276","36.170053104831"," Baxter","",""
"Burnett Cemetery","Altus"," Arkansas"," United States","County Road 955 Altus, Franklin, Arkansas, 72821 United States","-93.706606421931","35.481551332154"," Franklin","",""
"Burns Cemetery","Evening Shade"," Arkansas"," United States","746 Simstown Road Evening Shade, Sharp, Arkansas, 72532 United States","-91.544167","36.13361"," Sharp","",""
"Burns Cemetery","Floral"," Arkansas"," United States","Unnamed Rd Floral, Cleburne, Arkansas, 72534 United States","-91.82444","35.54306"," Cleburne","",""
"Burkhead Cemetery","Elkins"," Arkansas"," United States","Pollack Lane Elkins, Washington, Arkansas, 72727 United States","-94.039169","36.012501"," Washington","",""
"Burkett Cemetery","Floral"," Arkansas"," United States","1712-1764 Big Creek Rd Floral, Independence, Arkansas, 72534 United States","-91.781387","35.541389"," Independence","",""
"Burns Cemetery","Valley Springs"," Arkansas"," United States","County Road 5016 Valley Springs, Marion, Arkansas, 72682 United States","-92.709999","36.107498"," Marion","",""
"Burgess Cemetery","Newport"," Arkansas"," United States","9621 West Main Street Newport, Jackson, Arkansas, 72112 United States","-91.28167","35.703331"," Jackson","",""
"Burgess Cemetery","London"," Arkansas"," United States","Unnamed Rd London, Pope, Arkansas, 72847 United States","-93.251842905766","35.401147897804"," Pope","",""
"Lane District Cemetery","Killingworth"," Connecticut"," United States","1-41 Lovers Ln Killingworth, Middlesex, Connecticut, 06419 United States","-72.572228501569","41.384839975477"," Middlesex","",""
"Burke Chapel Cemetery ","Camp"," Arkansas"," United States","South Camp Creek Road Camp, Fulton, Arkansas United States","-91.709213808367","36.367993182198"," Fulton","",""
"Burke Cemetery","Scotland"," Arkansas"," United States","Andrew Rd Scotland, Van Buren, Arkansas, 72141 United States","-92.68306","35.546669"," Van Buren","",""
"Lamson Corner Cemetery","Burlington"," Connecticut"," United States","190-222 Connecticut 69 Burlington, Hartford, Connecticut, 06013 United States","-72.970823234932","41.743181539571"," Hartford","",""
"Burch Cemetery","Flippin"," Arkansas"," United States","301-303 Hillcrest St Flippin, Marion, Arkansas, 72634 United States","-92.596107","36.271389"," Marion","",""
"Burk's Chapel","French"," Arkansas"," United States","4500 S Camp Creek Rd French, Lafayette, Arkansas United States","-93.56103","33.05077"," Lafayette","",""
"Burris Cemetery","Lonoke"," Arkansas"," United States","876-926 Arkansas 294 Lonoke, Lonoke, Arkansas, 72086 United States","-91.998329","34.836109"," Lonoke","",""
"Lakes Pond Cemetery","Waterford"," Connecticut"," United States","1135 Hartford Turnpike Waterford, New London, Connecticut, 06385 United States","-72.180010755785","41.403085809243"," New London","",""
"Lakeside Cemetery","Morris"," Connecticut"," United States","101-199 Lakeside Rd Morris, Litchfield, Connecticut, 06763 United States","-73.23806","41.681671"," Litchfield","",""
"Lake Avenue Cemetery","Bristol"," Connecticut"," United States","1-99 Downs St Bristol, Hartford, Connecticut, 06010 United States","-72.926976236771","41.668882491321"," Hartford","",""
"Lake Ave Cemetery","Bristol"," Connecticut"," United States","501-545 Lake Ave Bristol, Hartford, Connecticut, 06010 United States","-72.922681828505","41.652261645134"," Hartford","",""
"Lands End Cemetery","Newtown"," Connecticut"," United States","61-69 Hawleyville Rd Newtown, Fairfield, Connecticut, 06470 United States","-73.360001","41.437222"," Fairfield","",""
"Kinsman Cemetery","Lisbon"," Connecticut"," United States","151-199 Kinsman Hill Road Lisbon, New London, Connecticut, 06351 United States","-72.036069135687","41.614907959462"," New London","",""
"Knapp Cemetery","Greenwich"," Connecticut"," United States","1-49 Sumner Rd Greenwich, Fairfield, Connecticut, 06831 United States","-73.668327","41.11694"," Fairfield","",""
"King St","Enfield"," Connecticut"," United States","23 Pleasant Road Enfield, Hartford, Connecticut, 06082 United States","-72.604978907382","41.939446477823"," Hartford","",""
"King Street Cemetery","Enfield"," Connecticut"," United States","1-15 Pleasant Rd Enfield, Hartford, Connecticut, 06082 United States","-72.60556","41.938889"," Hartford","",""
"Killingly Town Farm Cemetery","Killingly"," Connecticut"," United States","526 Hartford Pike Killingly, Windham, Connecticut, 06241 United States","-71.883401","41.846367"," Windham","",""
"Kent Hollow Cemetery","Kent"," Connecticut"," United States","123-129 Anderson Rd Kent, Litchfield, Connecticut, 06757 United States","-73.404167","41.704441"," Litchfield","",""
"resurrecion","Montebello"," California"," United States","Potrero Grande Drive Montebello, Los Angeles, California, 91755 United States","-118.10069260553","34.041207735327"," Los Angeles","",""
"Lakeview Cemetery","East Hampton"," Connecticut"," United States","Markham Ln East Hampton, Middlesex, Connecticut, 06424 United States","-72.499168","41.583889"," Middlesex","",""
"Kenyon Cemetery","Sterling"," Connecticut"," United States","945 Plainfield Pike Sterling, Windham, Connecticut, 06377 United States","-71.826688","41.689882"," Windham","",""
"Killam Cemetery","Ledyard"," Connecticut"," United States","47-63 Rose Hill Road Ledyard, New London, Connecticut, 06339 United States","-72.025191","41.485685"," New London","",""
"Lakeview Cemetery","New Canaan"," Connecticut"," United States","100-166 Millport Ave New Canaan, Fairfield, Connecticut, 06840 United States","-73.483612","41.14278"," Fairfield","",""
"Lake Elise Cemetery","Middlebury"," Connecticut"," United States","Long Meadow Road Middlebury, New Haven, Connecticut, 06762 United States 
                         
                    ","-73.138760608506","41.521682906192"," New Haven","http://www.middleburycemetery.com/",""
"Ressurection Cemetery ","San Gabriel"," California"," United States","603 West Roses Road San Gabriel, Los Angeles, California United States","-118.10882","34.110009"," Los Angeles","",""
"Lady Fenwicks Grave","Old Saybrook Center"," Connecticut"," United States","2-36 Willard Ave Old Saybrook Center, Middlesex, Connecticut, 06475 United States","-72.355572658722","41.283715986838"," Middlesex","",""
"Kings Highway Cemetery","Milford city (balance)"," Connecticut"," United States","38 Ross St Milford city (balance), New Haven, Connecticut, 06460 United States","-73.044167","41.230831"," New Haven","",""
"Redwood Valley Cemetery","Redwood Valley"," California"," United States","1288 Road B Redwood Valley, Mendocino, California, 95470 United States","-123.20437019981","39.287303664765"," Mendocino","",""
"Lakeview Cemetery","Bridgeport"," Connecticut"," United States","1055-1219 U.S. 1 Bridgeport, Fairfield, Connecticut, 06610 United States","-73.173607","41.19556"," Fairfield","",""
"Raymond Cemetery","Raymond"," California"," United States","Road 607 Raymond, Madera, California, 93653 United States 
                         
                    ","-119.93862183845","37.184901084669"," Madera","http://www.maderacemetery.org/raymond-cemetery/",""
"Reedley Cemetery","Reedley"," California"," United States","2185 S Reed Ave Reedley, Fresno, California, 93654 United States","-119.45859224075","36.581664309526"," Fresno","",""
"Quintana Cemetery","San Luis Obispo"," California"," United States","2550 Canet Rd San Luis Obispo, San Luis Obispo, California, 93405 United States","-120.79000316704","35.352193766559"," San Luis Obispo","",""
"Redwood Memorial Gardens","Guerneville"," California"," United States","15900-15998 Madrona Rd Guerneville, Sonoma, California, 95446 United States","-122.9925442996","38.507900484576"," Sonoma","",""
"Redwood Cemetery","Napa"," California"," United States","2250 Mt Veeder Rd Napa, Napa, California, 94558 United States","-122.4098252381","38.368729176831"," Napa","",""
"Redding Memorial Cemetery","Redding"," California"," United States","1201 Continental St Redding, Shasta, California, 96001 United States","-122.38538135709","40.588918717008"," Shasta","",""
"Redbank Cemetery","Clovis"," California"," United States","11600-11998 E Shaw Ave Clovis, Fresno, California, 93611 United States","-119.5779404144","36.808908179757"," Fresno","",""
"Rand District Cemetery","Johannesburg"," California"," United States","Mt Wells Ave Ophir Street Johannesburg, Kern, California, 93528 United States","-117.64059300132","35.367377560261"," Kern","",""
"Radec Cemetery","Radec"," California"," United States","583030040, Aguanga, CA 92536 Radec, Riverside, California, 92592 United States","-116.9133847152","33.464923748217"," Riverside","",""
"Winslow Indian Sanatorium Cemetery","Winslow"," Arizona"," United States","Route 66 Winslow, Navajo, Arizona, 86047 United States","-110.707469","35.038657"," Navajo","",""
"Winslow Cemetery-Business","Winslow"," Arizona"," United States","101-157 East 1st Street Winslow, Navajo, Arizona, 86047 United States","-110.697592","35.022248"," Navajo","",""
"Quincy Cemetery","East Quincy"," California"," United States","477 E Main St East Quincy, Plumas, California, 95971 United States","-120.93068867542","39.936060043131"," Plumas","",""
"Raisin City Cemetery","Raisin City"," California"," United States","9501-9999 S Ormus Ave Raisin City, Fresno, California, 93652 United States","-119.90404683202","36.590578228704"," Fresno","",""
"Queen of Heaven Cemetery","Lafayette"," California"," United States","1965 Reliez Valley Rd Lafayette, Contra Costa, California, 94549 United States 
                         
                    ","-122.10657814639","37.944264216081"," Contra Costa","https://www.cfcsoakland.org/location/queen-of-heaven-cemetery-funeral-center-fd1959/",""
"Rancho Bernardo Community Presbyterian Church Columbarium","San Diego"," California"," United States","1701 Pomerado Road San Diego, San Diego, California, 92128 United States 
                         
                    ","-117.06185789912","33.019785671218"," San Diego","www.rbcommunity.org",""
"Ravendale Cemetery","Ravendale"," California"," United States","US Route 395 Ravendale, Lassen, California, 96123 United States","-120.39136553","40.81761511"," Lassen","",""
"Queen of Heaven Cemetery","Prunedale"," California"," United States","689-799 Harrison Rd Prunedale, Monterey, California, 93907 United States","-121.66133530778","36.759940032839"," Monterey","",""
"Windy Hill / Blevins Cemetery","Roosevelt"," Arizona"," United States","Blevins Picnic Site, Chipmunk Campground, Windy Hill Recreation Area Roosevelt, Gila, Arizona, 85545 United States 
                         
                    ","-111.09033053374","33.663538902356"," Gila","https://tapeunit.com/the-windy-hill-cemetery-near-roosevelt-az/",""
"Wickchoupai Cemetery","Sells"," Arizona"," United States","Unnamed Road Sells, Pima, Arizona, 85634 United States","-111.93676617603","32.001523131744"," Pima","",""
"Woodruff Cemetery","Woodruff"," Arizona"," United States","7850-7858 Blue Bird Ln Woodruff, Navajo, Arizona, 85942 United States","-110.032288","34.777289"," Navajo","",""
"Queen of Heaven Cemetery","Rowland Heights"," California"," United States","2099 Fullerton Rd Rowland Heights, Los Angeles, California, 91748 United States","-117.9130558385","33.982492581547"," Los Angeles","",""
"White Cross Cemetery","Benson"," Arizona"," United States","S Salcido Ranch Rd Benson, Pima, Arizona, 85602 United States","-110.48235364551","32.027824479046"," Pima","",""
"Whipple Memorial Park","Winslow"," Arizona"," United States","Oak Rd Winslow, Navajo, Arizona, 86047 United States","-110.674171","35.024719"," Navajo","",""
"Whiting Homestead Plot","Apache"," Arizona"," United States","County Road 1327 Apache, Apache, Arizona United States","-109.577153","34.187774"," Apache","",""
"Wittmann Cemetery ","Wittmann"," Arizona"," United States","21307 Galvin St. Wittmann, Maricopa, Arizona United States","-112.52094344467","33.803493330681"," Maricopa","",""
"Whalen Cemetery","Willcox"," Arizona"," United States","Deer Creek Rd Willcox, Graham, Arizona, 85643 United States","-110.205002","32.716671"," Graham","",""
"Wickenburg Cemetery","Wickenburg"," Arizona"," United States","null S Kellis Rd Wickenburg, Maricopa, Arizona, 85390 United States","-112.73777947488","33.957407798151"," Maricopa","",""
"West Vamori Cemetery","Sells"," Arizona"," United States","Unnamed Road Sells, Pima, Arizona, 85634 United States","-111.92202739123","31.718586923935"," Pima","",""
"Willowbrook Church Columbarium","Sun City"," Arizona"," United States","19390 North 99th Avenue Sun City, Maricopa, Arizona, 85373 United States","-112.28129","33.659631"," Maricopa","",""
"West Sil Nakya Cemetery","Sells"," Arizona"," United States","Unnamed Road Sells, Pima, Arizona, 85634 United States","-111.82396828634","32.218134861998"," Pima","",""
"Bethel West Cemetery","Georgiana"," Alabama"," United States","County Road 106 Georgiana, Conecuh, Alabama, 36033 United States","-86.915120041784","31.702062076634"," Conecuh","",""
"West Sacaton Cemetery","Sacaton"," Arizona"," United States","101 Cactus Street Sacaton, Pinal, Arizona, 85147 United States","-111.74729227131","33.076918522619"," Pinal","",""
"West Concho Cemetery","Concho"," Arizona"," United States","County Road 5338 Concho, Apache, Arizona, 85924 United States","-109.62428051561","34.472828312796"," Apache","",""
"Wenden Cemetery","Wenden"," Arizona"," United States","71220 Ash Avenue Wenden, La Paz, Arizona, 85357 United States","-113.53301570196","33.818834770947"," La Paz","",""
"Bethel United Methodist Church Cemetery","Talladega"," Alabama"," United States","189-449 New Lincoln Road Talladega, Talladega, Alabama, 35160 United States","-86.1327471781","33.491268988715"," Talladega","",""
"Bethel United Methodist Church","Butler"," Alabama"," United States","187 Tims Road Butler, Choctaw, Alabama, 36912 United States","-88.421838403702","32.178079006824"," Choctaw","",""
"Whitewater Cemetery","Elfrida"," Arizona"," United States","10776 North Mormon Road Elfrida, Cochise, Arizona, 85610 United States","-109.67161579891","31.710581945059"," Cochise","",""
"Bethel Mission Cemetery","Salem"," Alabama"," United States","2815-2857 County Road 249 Salem, Lee, Alabama, 36877 United States","-85.112839935564","32.579596268713"," Lee","",""
"Bethel Methodist Church","Ohatchee"," Alabama"," United States","1250 Peeks Hill Road Ohatchee, Calhoun, Alabama, 35905 United States","-85.983127072487","33.863251503469"," Calhoun","",""
"Bethel Lutheran Church","Fairhope"," Alabama"," United States","6725 County Road 32 Fairhope, Baldwin, Alabama, 36532 United States","-87.907715056336","30.473093050834"," Baldwin","",""
"Bethel Church","Georgiana"," Alabama"," United States","15694 McKenzie Grade Road Georgiana, Butler, Alabama, 36033 United States","-86.619742477533","31.582644134916"," Butler","",""
"Whiteriver Cemetery","Whiteriver"," Arizona"," United States","W Cemetery Rd Whiteriver, Navajo, Arizona, 85941 United States","-109.97447813625","33.832930505221"," Navajo","",""
"West Casa Blanca Cemetery","Bapchule"," Arizona"," United States","West Casa Blanca Road West Casa Blanca Road Bapchule, Pinal, Arizona, 85121 United States","-111.90544244293","33.116793745757"," Pinal","",""
"Bethel Hill Cemetery","Thomaston"," Alabama"," United States","Unnamed Rd Thomaston, Marengo, Alabama, 36783 United States","-87.53468107865","32.29705742252"," Marengo","",""
"Bethel Church","Brewton"," Alabama"," United States","4140 Fuqua Road Brewton, Escambia, Alabama, 36426 United States","-86.937324079927","31.0302101106"," Escambia","",""
"Bethel Cemetery","Brewton"," Alabama"," United States","Bartime Rd and Glade Cir Brewton, Escambia, Alabama, 36426 United States","-86.930645813466","31.041246978201"," Escambia","",""
"Bethel Cemetery","Phil Campbell"," Alabama"," United States","1035-2445 County Road 79 Phil Campbell, Franklin, Alabama, 35581 United States","-87.65222256364","34.316945313724"," Franklin","",""
"West Cocopah Indian Reservation Cemetery","Somerton"," Arizona"," United States","Farm Road Farm Road Somerton, Yuma, Arizona, 85350 United States","-114.76415550066","32.615276814464"," Yuma","",""
"Bethel Cemetery","Delta"," Alabama"," United States","Bethel Church Rd Delta, Clay, Alabama, 36258 United States","-85.684174","33.489441"," Clay","",""
"Bethel Cemetery","Whatley"," Alabama"," United States","Yester Oaks Rd Whatley, Clarke, Alabama, 36482 United States","-87.658445290898","31.683572217414"," Clarke","",""
"Bethel Primitive Baptist Church","Clio"," Alabama"," United States","3979 Bethel Rd Clio, Barbour, Alabama United States","-85.483669093774","31.645461940291"," Barbour","",""
"Bethel Primitive Baptist Church Cemetery ","McKenzie"," Alabama"," United States","Garden Road McKenzie, Covington, Alabama, 36456 United States","-86.68483","31.52164"," Covington","",""
"Bithynia Cemetery","Swainsboro"," Georgia"," United States","2230-2278 U.S. 1 Swainsboro, Emanuel, Georgia, 30401 United States","-82.390479177238","32.711677343612"," Emanuel","",""
"Bishops Chapel Cemetery","Midville"," Georgia"," United States","1300-1392 Bishop Chapel Church Rd Midville, Emanuel, Georgia, 30441 United States","-82.240117197578","32.736932044832"," Emanuel","",""
"Bethel Cemetery","Ashland"," Alabama"," United States","75233-76835 Alabama 9 Ashland, Clay, Alabama, 36251 United States","-85.894879060867","33.20230689327"," Clay","",""
"Bishop Cemetery","Bishop"," Georgia"," United States","1060 Cemetery Rd Bishop, Oconee, Georgia, 30621 United States","-83.444135252033","33.821953363115"," Oconee","",""
"Birdsong Cemetery","Rome"," Georgia"," United States","142-208 Booze Mountain Rd SW Rome, Floyd, Georgia, 30161 United States","-85.221626305857","34.169043120347"," Floyd","",""
"Bird Cemetery","Ellabell"," Georgia"," United States","4841 Bill Futch Rd Ellabell, Bryan, Georgia, 31308 United States","-81.463077047774","32.136051043537"," Bryan","",""
"Bird-McCleskey Cemetery","Milton"," Georgia"," United States","2251-2257 Birmingham Road Milton, Fulton, Georgia, 30004 United States","-84.291295293236","34.164869524747"," Fulton","",""
"Bird Cemetery","Culloden"," Georgia"," United States","1301-1999 Abercrombie Rd Culloden, Monroe, Georgia, 31016 United States","-84.024471019352","32.914913831413"," Monroe","",""
"Bethel Cemetery","Cragford"," Alabama"," United States","Beaula K Rd Cragford, Clay, Alabama, 36255 United States","-85.812354667064","33.115588046619"," Clay","",""
"Bethel Cemetery","Babbie"," Alabama"," United States","U.S. 84 Babbie, Covington, Alabama, 36467 United States","-86.32917","31.274441"," Covington","",""
"Binion Family Cemetery","Sparta"," Georgia"," United States","Island Creek Rd Sparta, Hancock, Georgia, 31087 United States","-83.170563","33.216671"," Hancock","",""
"Bird Cemetery","Bristol"," Georgia"," United States","Bristol, Pierce, Georgia United States","-82.195824650754","31.472293873281"," Pierce","",""
"Bethel Cemetery","Madison"," Alabama"," United States","25467-25543 Lee Hwy Madison, Limestone, Alabama, 35756 United States","-86.872976169311","34.765850850069"," Limestone","",""
"Bishop Cemetery","Marietta"," Georgia"," United States","801 Indian Hills Pkwy Marietta, Cobb, Georgia, 30068 United States","-84.438980314273","33.968238352717"," Cobb","",""
"Black Creek Cemetery","Sylvania"," Georgia"," United States","Poor Robin Rd Sylvania, Screven, Georgia, 30467 United States","-81.551155","32.679462"," Screven","",""
"Black Creek Cemetery","Sylvania"," Georgia"," United States","Black Creek Rd Sylvania, Screven, Georgia, 30467 United States","-81.519161050257","32.664665800389"," Screven","",""
"Bingham Chapel Cemetery","Fortson"," Georgia"," United States","214-642 Fortson Rd Fortson, Harris, Georgia, 31808 United States","-84.958088514422","32.662183611362"," Harris","",""
"Billingsley Cemetery","Clayton"," Georgia"," United States","Georgia 28 Clayton, Rabun, Georgia, 30525 United States","-83.189438","34.938332"," Rabun","",""
"Bines Slave Cemetery","Blythe"," Georgia"," United States","George Perkins Rd Blythe, Burke, Georgia, 30805 United States","-82.113609","33.179169"," Burke","",""
"Birmingham Baptist Church","Milton"," Georgia"," United States","16052-16056 Old Bullpen Road Milton, Fulton, Georgia, 30004 United States","-84.337101882791","34.16844677103"," Fulton","",""
"Billingslea Cemetery","West Point"," Georgia"," United States","1421-1423 Pine Lake Rd West Point, Harris, Georgia, 31833 United States","-85.06280400248","32.786422777933"," Harris","",""
"Billings Cemetery","Colquitt"," Georgia"," United States","County Road 230 Colquitt, Early, Georgia, 31741 United States","-84.737607664102","31.304007522528"," Early","",""
"Biggers Cemetery","Covington"," Georgia"," United States","14760 Georgia Highway 212 Covington, Newton, Georgia, 30016 United States","-83.858887","33.452782"," Newton","",""
"Bulter Cemetery","Star City"," Arkansas"," United States","County Road 29 Star City, Lincoln, Arkansas, 71667 United States","-91.788223579893","33.896859856058"," Lincoln","",""
"Biggers Cemetery","Columbus"," Georgia"," United States","8590 River Road Columbus, Muscogee, Georgia, 31904 United States","-85.01349","32.57289"," Muscogee","",""
"Bio Cemetery","Hartwell"," Georgia"," United States","Bio Church Road 510 Hartwell, Hart, Georgia, 30643 United States","-82.937712578044","34.27422079902"," Hart","",""
"Bunch Cemetery","Berryville"," Arkansas"," United States","637-639 County Road 434 Berryville, Carroll, Arkansas, 72616 United States","-93.576377250655","36.405492541715"," Carroll","",""
"Bullock Cemetery","Dardanelle"," Arkansas"," United States","Dardanelle, Yell, Arkansas United States","-93.255829","35.278332"," Yell","",""
"Bull Cemetery","Huntington"," Arkansas"," United States","4116 Apple Blossom Loop Huntington, Sebastian, Arkansas, 72940 United States","-94.193611","35.11417"," Sebastian","",""
"Buggy Hill Cemetery","Mansfield"," Arkansas"," United States","2-438 County Road 413 Mansfield, Sebastian, Arkansas, 72944 United States","-94.261201658156","35.038252117542"," Sebastian","",""
"Buffalo Cemetery","Cove"," Arkansas"," United States","243-253 Polk Road 231 Cove, Polk, Arkansas, 71937 United States","-94.444717","34.424171"," Polk","",""
"Bud Davis Cemetery","Booneville"," Arkansas"," United States","310 Garner Rd Booneville, Logan, Arkansas, 72927 United States","-93.859348294635","35.048827880956"," Logan","",""
"Buckville Cemeteries","Jessieville"," Arkansas"," United States","Buckville Rd Jessieville, Garland, Arkansas, 71949 United States","-93.343613","34.61417"," Garland","",""
"Buckner Cemetery","Buckner"," Arkansas"," United States","County Road 43 Buckner, Lafayette, Arkansas, 71827 United States","-93.442562144816","33.370843350498"," Lafayette","",""
"Buena Vista Cemetery African American","Ouachita"," Arkansas"," United States","Ouachita, Arkansas United States","-92.953125748216","33.490064799795","","",""
"Buckner Cemetery","Blytheville"," Arkansas"," United States","E County Road 142 Blytheville, Mississippi, Arkansas, 72315 United States","-89.723978025495","35.944484949337"," Mississippi","",""
"Buckeye Cemetery","Augusta"," Arkansas"," United States","County Road 874 Augusta, Woodruff, Arkansas, 72006 United States","-91.363327","35.12944"," Woodruff","",""
"Buck Cemetery","Newark"," Arkansas"," United States","130-142 W Hanger Rd Newark, Independence, Arkansas, 72562 United States","-91.396667","35.75806"," Independence","",""
"Buck Range Cemetery","Mineral Springs"," Arkansas"," United States","1582 Buck Range Road Mineral Springs, Howard, Arkansas, 71851 United States","-93.861389","33.830002"," Howard","",""
"Buckner Cemetery","Fayetteville"," Arkansas"," United States","E Neely Dr Fayetteville, Washington, Arkansas, 72701 United States","-94.125792430283","36.055906970313"," Washington","",""
"Buck Lake Cemetery","Earle"," Arkansas"," United States","7850 Bucklake Road Earle, Crittenden, Arkansas, 72331 United States","-90.423058","35.202782"," Crittenden","",""
"Bug Scuffle Church","Cove Creek"," Arkansas"," United States","20881-21343 Bug Scuffle Road Cove Creek, Washington, Arkansas, 72774 United States","-94.342056427959","35.784087631506"," Washington","",""
"Buffalo Cemetery","Waldron"," Arkansas"," United States","U.S. 71 Waldron, Scott, Arkansas, 72958 United States","-94.043474833959","34.797593210229"," Scott","",""
"Judge Williams Cemetery","Ledyard"," Connecticut"," United States","585 Shewville Road Ledyard, New London, Connecticut, 06339 United States","-71.961968","41.435017"," New London","",""
"Bulger Cemetery aka Stinett Cemetery","Hatfield"," Arkansas"," United States","214-338 Strawberry Ln Hatfield, Polk, Arkansas, 71945 United States","-94.400002","34.542782"," Polk","",""
"Joseph Roode Farm Cemetery","Plainfield"," Connecticut"," United States","70 Roode Road Plainfield, Windham, Connecticut, 06374 United States","-71.941819","41.636712"," Windham","",""
"Jones Street Cemetery","Amston"," Connecticut"," United States","319-343 Jones St Amston, Tolland, Connecticut, 06231 United States","-72.390498561242","41.604655953892"," Tolland","",""
"Buckhorn Cemetery","Pettigrew"," Arkansas"," United States","County Road 3 Pettigrew, Newton, Arkansas, 72752 United States","-93.513637346177","35.778065657849"," Newton","",""
"Jonathan Wheeler Cemetery","Stonington"," Connecticut"," United States","219 Wheeler Road Stonington, New London, Connecticut, 06378 United States","-71.910927","41.387384"," New London","",""
"Kennedy Cemetery","Voluntown"," Connecticut"," United States","264-448 Wylie School Road Voluntown, New London, Connecticut, 06384 United States","-71.8312972000695","41.6015258315464"," New London","",""
"Buchannan Cemetery","Poughkeepsie"," Arkansas"," United States","Buchanan Rd Poughkeepsie, Sharp, Arkansas, 72569 United States","-91.434723","36.13028"," Sharp","",""
"Judea Cemetery","Washington"," Connecticut"," United States","35 Judea Cemetery Rd Washington, Litchfield, Connecticut, 06793 United States","-73.300260544751","41.62612388091"," Litchfield","",""
"John Tom Hill Cemetery","Glastonbury"," Connecticut"," United States","3250-3350 Connecticut 94 Glastonbury, Hartford, Connecticut, 06033 United States","-72.477501","41.7075"," Hartford","",""
"Jewett City Baptist Church Cemetery","Griswold"," Connecticut"," United States","29-31 Mathewson Street Griswold, New London, Connecticut, 06351 United States","-71.983177","41.607095"," New London","",""
"Jewish Cemetery Association","Waterbury"," Connecticut"," United States","Frost Road Waterbury, New Haven, Connecticut, 06705 United States 
                         
                    ","-73.011679","41.558697"," New Haven","http://www.jewishcemeteriesofwaterbury.com/",""
"Joseph Douglass Lot","Voluntown"," Connecticut"," United States","Noah Ark Road Voluntown, New London, Connecticut, 06384 United States 
                         
                    ","-71.7935512833977","41.5692539463532"," New London","http://rihistoriccemeteries.org/newsearchcemeterydetail.aspx?ceme_no=EX071",""
"Joseph Denison Cemetery (53)","Stonington"," Connecticut"," United States","38 Rowley Drive Stonington, New London, Connecticut, 06378 United States","-71.922028425798","41.392718242043"," New London","",""
"Johnson Cemetery","Bozrah"," Connecticut"," United States","35 Schwartz Road Bozrah, New London, Connecticut United States","-72.17480680374","41.569981394588"," New London","",""
"Jordan Cemetery","Central Waterford Waterford Waterford"," Connecticut"," United States","239 Boston Post Road Central Waterford Waterford Waterford, New London, Connecticut, 06385 United States","-72.1414421593855","41.3451963731126"," New London","",""
"Pythian Home Cemetery","Santa Rosa"," California"," United States","7425 Rancholos Guilicos Rd Santa Rosa, Sonoma, California, 95409 United States","-122.58171908072","38.443647185735"," Sonoma","",""
"Pugh Cemetery","Live Oak"," California"," United States","Live Oak, Sutter, California, 95953 United States","-121.80941902713","39.250488302592"," Sutter","",""
"Purissima Cemetery","Half Moon Bay"," California"," United States","1191 Verde Road Half Moon Bay, San Mateo, California, 94019 United States","-122.41627232525","37.403772160985"," San Mateo","",""
"John Tennant Lot / Phillips Lot","Voluntown"," Connecticut"," United States","Shetucket Turnpike Voluntown, New London, Connecticut, 02817 United States 
                         
                    ","-71.78881","41.61608"," New London","http://rihistoriccemeteries.org/newsearchcemeterydetail.aspx?ceme_no=WG120",""
"Jezierski Plot","East Lyme"," Connecticut"," United States","177 Whistletown Road East Lyme, New London, Connecticut, 06333 United States","-72.261908","41.400742"," New London","",""
"Johnson Burying Ground","Montville"," Connecticut"," United States","1462 Norwich-New London Turnpike Montville, New London, Connecticut, 06382 United States","-72.104108373016","41.464432283136"," New London","",""
"Presidio of Monterey Main Post Cemetery","Monterey"," California"," United States","Mason Road Monterey, Monterey, California, 93944 United States 
                         
                    ","-121.91492526275","36.605951789019"," Monterey","https://armycemeteries.army.mil/Cemeteries/Presidio-of-Monterey-Main-Post-Cemetery",""
"John Lewis Lot","North Stonington"," Connecticut"," United States","83 Pine Woods Road North Stonington, New London, Connecticut, 06359 United States","-71.801018339366","41.472401431896"," New London","",""
"Pryor Grave","Stonyford"," California"," United States","Grapevine Creek Stonyford, Colusa, California, 95979 United States","-122.41527657869","39.333542495906"," Colusa","",""
"Jewett City Cemetery","Griswold"," Connecticut"," United States","99 Anthony Street Griswold, New London, Connecticut, 06351 United States","-71.987469","41.606182"," New London","",""
"Jacks Hill Cemetery","Oxford"," Connecticut"," United States","Oxford, New Haven, Connecticut, 06478 United States","-73.13028","41.465832"," New Haven","",""
"Quechan Indian Cemetery","Winterhaven"," California"," United States","Cocopah Road Cocopah Road Winterhaven, Imperial, California, 92283 United States","-114.61423361506","32.739539932125"," Imperial","",""
"Prairie Cemetery","Del Rey"," California"," United States","5000-5322 S McCall Ave Del Rey, Fresno, California, 93616 United States","-119.61100546027","36.66150849003"," Fresno","",""
"Prattville Cemetery","Canyondam"," California"," United States","Unnamed Road Canyondam, Plumas, California, 95923 United States","-121.15488578149","40.207464662475"," Plumas","",""
"Pozo Community Cemetery","Santa Margarita"," California"," United States","64 West Pozo Road Santa Margarita, San Luis Obispo, California, 93453 United States","-120.360038","35.307024"," San Luis Obispo","",""
"Public Cemetery","Columbia"," California"," United States","23033 Italian Bar Rd Columbia, Tuolumne, California, 95310 United States","-120.39898052054","38.039656831763"," Tuolumne","",""
