"name","city","state","country","address","Longitude","Latitude","Municipalities","Website",""
"Irwin Cemetery","Plymouth"," Illinois"," United States","North County Road 2750 Plymouth, Hancock, Illinois, 62367 United States","-90.980055728612","40.306022063571"," Hancock","",""
"Ingraham Cemetery","Ingraham"," Illinois"," United States","Ingraham Ln Ingraham, Clay, Illinois, 62434 United States","-88.324173","38.834721"," Clay","",""
"Mooresville Cemetery","Mooresville"," Missouri"," United States","4122-4192 Highway D Mooresville, Livingston, Missouri, 64656 United States","-93.70202557679","39.668769623466"," Livingston","",""
"Ingle Cemetery","Batchtown"," Illinois"," United States","Batchtown, Calhoun, Illinois, 62006 United States","-90.644722","38.977501"," Calhoun","",""
"Irving Park Cemetery","Dunning"," Illinois"," United States","7751 W Irving Park Rd Dunning, Cook, Illinois, 60634 United States","-87.823059","41.949718"," Cook","",""
"Missionary Cemetery","Bogue Chitto"," Mississippi"," United States","2401-2499 Whitewater Ave SE Bogue Chitto, Lincoln, Mississippi, 39629 United States","-90.463828953335","31.432205636284"," Lincoln","",""
"Mississippi Veterans Memorial Cemetery","Newton"," Mississippi"," United States","248 Honor Circle Newton, Newton, Mississippi, 39345 United States","-89.08342","32.34098"," Newton","",""
"Ingersoll Cemetery","Potomac"," Illinois"," United States","7017 East 3250 N Road Potomac, Vermilion, Illinois, 61865 United States","-87.814171","40.339722"," Vermilion","",""
"Mission Cemetery","Winona"," Mississippi"," United States","N Mission Rd Winona, Montgomery, Mississippi, 38967 United States","-89.783058","33.534721"," Montgomery","",""
"Minter Cemetery","Blue Mountain"," Mississippi"," United States","1-577 County Road 801 Blue Mountain, Tippah, Mississippi, 38610 United States","-89.083328","34.72694"," Tippah","",""
"Miracle Temple Cemetery","Lena"," Mississippi"," United States","966-998 N Sandhill Rd Lena, Rankin, Mississippi, 39094 United States","-89.863875581254","32.50588559671"," Rankin","",""
"Mills Cemetery","Waynesboro"," Mississippi"," United States","965-1029 Buckatunna Chicora Clara Rd Waynesboro, Wayne, Mississippi, 39367 United States","-88.632096784497","31.557333011254"," Wayne","",""
"Mineral Springs Cemetery","Hattiesburg"," Mississippi"," United States","350-470 Old Highway 49 W Hattiesburg, Forrest, Mississippi, 39401 United States","-89.278032596667","31.156257057107"," Forrest","",""
"Mills Family Cemetery","Byhalia"," Mississippi"," United States","3203 Red Banks Road South Byhalia, DeSoto, Mississippi, 38611 United States","-89.779999","34.81361"," DeSoto","",""
"Mister Cemetery","Gore Springs"," Mississippi"," United States","Conley Road Gore Springs, Grenada, Mississippi, 38929 United States","-89.55032","33.744634"," Grenada","",""
"Ipava Cemetery","Ipava"," Illinois"," United States","11699 N St Marys St Ipava, Fulton, Illinois, 61441 United States","-90.32222","40.35667"," Fulton","",""
"Mills Cemetery","Buckatunna"," Mississippi"," United States","Buckatunna, Wayne, Mississippi, 39322 United States","-88.59263734975","31.583374653238"," Wayne","",""
"Ingram Cemetery","White Heath"," Illinois"," United States","2100-2192 County Road 1300 E White Heath, Piatt, Illinois, 61884 United States","-88.500589186508","40.107072293938"," Piatt","",""
"Milligan Springs Cemetery","Stewart"," Mississippi"," United States","Milligan Springs Rd Stewart, Webster, Mississippi, 39767 United States","-89.495494406084","33.46111742098"," Webster","",""
"Miller Springs Cemetery","Utica"," Mississippi"," United States","8030-8096 New Zion Rd Utica, Copiah, Mississippi, 39175 United States","-90.496134240844","32.029635458313"," Copiah","",""
"Miller Cemetery","Pontotoc"," Mississippi"," United States","1007 Kiersten Road Pontotoc, Pontotoc, Mississippi, 38863 United States","-88.98333","34.306389"," Pontotoc","",""
"Mitchell Cemetery","Carriere"," Mississippi"," United States","633 Harry Sones Road Carriere, Pearl River, Mississippi, 39426 United States","-89.678062","30.703329"," Pearl River","",""
"Miller Cemetery","Collins"," Mississippi"," United States","368-546 Seminary-Mike Conner Rd Collins, Covington, Mississippi, 39428 United States","-89.623409967205","31.556758279439"," Covington","",""
"Miley Cemetery","Brandon"," Mississippi"," United States","Unnamed Rd Brandon, Smith, Mississippi, 39042 United States","-89.702702194078","32.079051662889"," Smith","",""
"Milldale Cemetery","Union"," Mississippi"," United States","County Road 107 Union, Neshoba, Mississippi, 39365 United States","-89.300827","32.60556"," Neshoba","",""
"Mill Springs Cemetery","French Camp"," Mississippi"," United States","Stewart Weir Rd French Camp, Choctaw, Mississippi, 39745 United States","-89.335982315578","33.306855108303"," Choctaw","",""
"Mill Creek Cemetery","Laurel"," Mississippi"," United States","Mill Creek Rd Laurel, Jones, Mississippi, 39443 United States","-88.962359486426","31.696562492538"," Jones","",""
"Pence Cemetery","Converse"," Indiana"," United States","East Marion Street Converse, Grant, Indiana, 46919 United States","-85.854843261974","40.574830414243"," Grant","",""
"Pell Cemetery","Brazil"," Indiana"," United States","1-661 W County Road 1350 N Brazil, Clay, Indiana, 47834 United States","-87.111938","39.582779"," Clay","",""
"Pelser Cemetery","Bennington"," Indiana"," United States","126-172 Edgar Scudder Rd Bennington, Switzerland, Indiana, 47011 United States","-85.08889","38.889999"," Switzerland","",""
"Pell Cemetery","Brazil"," Indiana"," United States","9400 North County Road 200 Brazil, Clay, Indiana, 47834 United States","-87.064157905022","39.524802503691"," Clay","",""
"Pelham Cemetery","Shelbyville"," Indiana"," United States","751-1499 E 850 N Shelbyville, Shelby, Indiana, 46176 United States","-85.758389593925","39.647125361037"," Shelby","",""
"Pelley Cemetery","Lawrenceburg"," Indiana"," United States","19907-19999 Indiana 1 Lawrenceburg, Dearborn, Indiana, 47025 United States","-84.898064","39.157501"," Dearborn","",""
"Peewee Cemetery","Markleville"," Indiana"," United States","6001-6499 S 50 E Markleville, Madison, Indiana, 46056 United States","-85.664169","40.018059"," Madison","",""
"Pelham Cemetery","New Harmony"," Indiana"," United States","881 Indiana Highway 66 New Harmony, Posey, Indiana, 47631 United States","-87.899011652028","38.130765700394"," Posey","",""
"Peffley Cemetery","Roachdale"," Indiana"," United States","11381 North County Road 475 West Roachdale, Putnam, Indiana, 46172 United States","-86.929443","39.82806"," Putnam","",""
"Miller Cemetery","Toomsuba"," Mississippi"," United States","2100-2648 Minnow Bucket Rd Toomsuba, Lauderdale, Mississippi, 39364 United States","-88.575903481163","32.491284159825"," Lauderdale","",""
"Peavey Cemetery ","Jasonville"," Indiana"," United States","14556 Indiana Highway 59 Jasonville, Clay, Indiana United States","-87.158579","39.178547"," Clay","",""
"Paynter Cemetery","Salem"," Indiana"," United States","1415-1417 S Paynter Ln Salem, Washington, Indiana, 47167 United States","-86.05201159721","38.580188925032"," Washington","",""
"Payton Cemetery","Laconia"," Indiana"," United States","3626-4998 Rogers Campground Road Southeast Laconia, Harrison, Indiana, 47135 United States","-86.05974","38.09529"," Harrison","",""
"Military Chapel Cemetery","Columbus"," Mississippi"," United States","Kidd Rd Columbus, Lowndes, Mississippi, 39705 United States","-88.345394382485","33.626940070239"," Lowndes","",""
"Payne Cemetery","Huntingburg"," Indiana"," United States","Kessner Bridge Rd Huntingburg, Dubois, Indiana, 47542 United States","-87.004833618008","38.351389903918"," Dubois","",""
"Paxton Farm Cemetery","Grant"," Indiana"," United States","3863 E 200  S Grant, Indiana, 46953 United States","-85.599341313833","40.524044119158","","",""
"Patterson Cemetery","Edinburgh"," Indiana"," United States","3471-3749 W 850 S Edinburgh, Shelby, Indiana, 46124 United States","-85.848892","39.40028"," Shelby","",""
"Patterson Cemetery","Galveston"," Indiana"," United States","6574-6998 E County Road 1100 S Galveston, Cass, Indiana, 46932 United States","-86.24556","40.605282"," Cass","",""
"Patricksburg Christian Cemetery","Marion Township"," Indiana"," United States","1302-2024 Mitten Road Marion Township, Owen, Indiana, 47460 United States","-86.94724691632","39.311966125533"," Owen","",""
"Patterson Cemetery","Liberty"," Indiana"," United States","656-826 N Patterson Rd Liberty, Union, Indiana, 47353 United States","-84.946815575538","39.651407212552"," Union","",""
"Oak Lawn Cemetery","Auburn"," Iowa"," United States","3624-3640 Xavier Ave Auburn, Sac, Iowa, 51433 United States","-94.885277","42.261108"," Sac","",""
"Oak Lawn Cemetery","Cresco"," Iowa"," United States","95th St Cresco, Howard, Iowa, 52136 United States","-92.089996","43.379719"," Howard","",""
"Oak Lawn Cemetery","Keosauqua"," Iowa"," United States","Keosauqua, Van Buren, Iowa United States","-91.959999","40.739719"," Van Buren","",""
"Oak Lawn Cemetery","Lake Mills"," Iowa"," United States","510th St Lake Mills, Winnebago, Iowa, 50450 United States","-93.501551874665","43.500220447972"," Winnebago","",""
"Oak Lawn Cemetery","Hawkeye"," Iowa"," United States","19101-19119 250 St Hawkeye, Fayette, Iowa, 52147 United States","-91.966667","42.998611"," Fayette","",""
"Patton Cemetery","La Porte"," Indiana"," United States","801-821 Clement St La Porte, LaPorte, Indiana, 46350 United States","-86.706108","41.605"," LaPorte","",""
"Oak Hill Cemetery","Parkersburg"," Iowa"," United States","501-599 Miners St Parkersburg, Butler, Iowa, 50665 United States","-92.794441","42.57444"," Butler","",""
"Payne Cemetery","Bloomington"," Indiana"," United States","North Old State Road 37 Bloomington, Monroe, Indiana United States","-86.518832896286","39.220175414579"," Monroe","",""
"Oak Hill Cemetery","Lansing"," Iowa"," United States","S Rd Dr Lansing, Allamakee, Iowa, 52151 United States","-91.240562","43.35778"," Allamakee","",""
"Oak Hill Cemetery","Fort Atkinson"," Iowa"," United States","2724 Hwy 24 Fort Atkinson, Winneshiek, Iowa, 52144 United States","-91.935210256219","43.139861934764"," Winneshiek","",""
"Oak Hill Cemetery","Castalia"," Iowa"," United States","1148-1172 Old Oak Rd Castalia, Winneshiek, Iowa, 52133 United States","-91.63018565214","43.132914940321"," Winneshiek","",""
"Paw Paw Cemetery","Richland"," Indiana"," United States","7712 North Paw Paw Pike Richland, Miami, Indiana, 46926 United States","-85.96724134514","40.878573368363"," Miami","",""
"Oak Hill Cemetery","Dumont"," Iowa"," United States","18846-19140 Evergreen Ave Dumont, Butler, Iowa, 50625 United States","-92.93528","42.771938"," Butler","",""
"Oak Point Cemetery","Milton"," Iowa"," United States","11527-11999 County Highway J40 Milton, Van Buren, Iowa, 52570 United States","-92.141694918231","40.727588908728"," Van Buren","",""
"Oak Hill Cemetery","Nashua"," Iowa"," United States","Unnamed Rd Nashua, Chickasaw, Iowa, 50658 United States","-92.535278","42.940559"," Chickasaw","",""
"Oak Hill Cemetery","New Hartford"," Iowa"," United States","30801-30881 County Road C67 New Hartford, Butler, Iowa, 50660 United States","-92.616669","42.577499"," Butler","",""
"Oak Hill Cemetery","Tama"," Iowa"," United States","East 9th Street Tama, Tama, Iowa, 52339 United States","-92.557988","41.968966"," Tama","",""
"Oak Hill Cemetery","Anthon"," Iowa"," United States","3755-3757 210th St Anthon, Woodbury, Iowa, 51004 United States","-95.873062","42.395279"," Woodbury","",""
"Oak Hill Cemetery","Colesburg"," Iowa"," United States","Hubbard St Colesburg, Delaware, Iowa, 52035 United States","-91.192497","42.639172"," Delaware","",""
"Oak Hill Cemetery","Grand River"," Iowa"," United States","Unnamed Rd Grand River, Decatur, Iowa, 50108 United States","-93.923332","40.798611"," Decatur","",""
"Oak Hill Cemetery","Belle Plaine"," Iowa"," United States","1640 13th Street Belle Plaine, Benton, Iowa, 52208 United States","-92.255531844116","41.899839547645"," Benton","",""
"Oak Hill Cemetery","Estherville"," Iowa"," United States","203 Oak Hill Rd Estherville, Emmet, Iowa, 51334 United States","-94.852107661373","43.398273793452"," Emmet","",""
"Methodist Cemetery ","Whitley City"," Kentucky"," United States","234 Lorain Walker Road Whitley City, McCreary, Kentucky United States","-84.474206197255","36.729054137188"," McCreary","",""
"Merrimac Cemetery","London"," Kentucky"," United States","304-356 Westerfield Rd London, Laurel, Kentucky, 40744 United States","-83.962090225705","37.008209178948"," Laurel","",""
"Merrick Cemetery","Princeton"," Kentucky"," United States","304-424 Hazel Rd Princeton, Caldwell, Kentucky, 42445 United States","-87.865948426348","36.958285069947"," Caldwell","",""
"Merritt Cemetery","Somerset"," Kentucky"," United States","Merritt School Rd Somerset, Pulaski, Kentucky, 42501 United States","-84.453613","37.029999"," Pulaski","",""
"Messer Cemetery","Bimble"," Kentucky"," United States","Greenbriar Branch Rd Bimble, Knox, Kentucky, 40915 United States","-83.806434789148","36.9667118252"," Knox","",""
"Merritt Cemetery","Mt Vernon"," Kentucky"," United States","County Road 1085 Mt Vernon, Rockcastle, Kentucky, 40456 United States","-84.301694007179","37.403863136552"," Rockcastle","",""
"Mercer Cemetery","Graham"," Kentucky"," United States","Mercer Cemetery Rd Graham, Muhlenberg, Kentucky, 42344 United States","-87.333700582609","37.272890691345"," Muhlenberg","",""
"Menser Cemetery","Dawson Springs"," Kentucky"," United States","Hunt Ln Dawson Springs, Hopkins, Kentucky, 42408 United States","-87.667290235382","37.186936022615"," Hopkins","",""
"Mercer Cemetery","Eubank"," Kentucky"," United States","Estill Hackney Rd Eubank, Pulaski, Kentucky, 42567 United States","-84.582950866372","37.232596404071"," Pulaski","",""
"Memorial Hill Cemetery","Albany"," Kentucky"," United States","200-928 Rainbow Dr Albany, Clinton, Kentucky, 42602 United States","-85.134409665646","36.698531290973"," Clinton","",""
"Oak Hill Cemetery","Cherokee"," Iowa"," United States","1543 County Highway C38 Cherokee, Cherokee, Iowa, 51012 United States","-95.57972","42.749722"," Cherokee","",""
"Memorial Gardens Cemetery","Wickliffe"," Kentucky"," United States","County Road 1015 Wickliffe, Carlisle, Kentucky, 42087 United States","-88.889442","36.90472"," Carlisle","",""
"Mercer Cemetery","Hardyville"," Kentucky"," United States","2880-3338 Kentucky 677 Hardyville, Hart, Kentucky, 42746 United States","-85.713425609788","37.20835152694"," Hart","",""
"Memorial Turners Gardens","Nancy"," Kentucky"," United States","Ky-1720 Nancy, Wayne, Kentucky, 42544 United States","-84.900235259926","36.879074023472"," Wayne","",""
"Melvin Cemetery","Greenup"," Kentucky"," United States","Cr-1202D Greenup, Greenup, Kentucky, 41144 United States","-82.785388812773","38.513516669411"," Greenup","",""
"Memorial Gardens","Leitchfield"," Kentucky"," United States","2371-2479 Brandenburg Rd Leitchfield, Grayson, Kentucky, 42754 United States","-86.291293867075","37.511179190244"," Grayson","",""
"Oak Hill Cemetery","Nevada"," Iowa"," United States","18443-18455 677th Ave Nevada, Story, Iowa, 50201 United States","-93.355348428902","42.089136978448"," Story","",""
"Melvin Cemetery","Staffordsville"," Kentucky"," United States","Rule Branch Rd Staffordsville, Johnson, Kentucky, 41256 United States","-82.847234542654","37.838468544362"," Johnson","",""
"Medlock Cemetery","Jackson"," Kentucky"," United States","1289-1639 Little Creek Rd Jackson, Breathitt, Kentucky, 41339 United States","-83.359169","37.441669"," Breathitt","",""
"Meeting Creek Baptist Church Cemetery","Eastview"," Kentucky"," United States","16531-16853 Sonora Hardin Springs Road Eastview, Hardin, Kentucky, 42732 United States","-86.114006","37.608118"," Hardin","",""
"Meek Cemetery","Princeton"," Kentucky"," United States","Carner Hill Rd Princeton, Caldwell, Kentucky, 42445 United States","-87.906966060981","37.149039873401"," Caldwell","",""
"Memory Park Cemetery ","Bonnieville"," Kentucky"," United States","72-142 Memorial Park Avenue Bonnieville, Hart, Kentucky United States","-85.900732863119","37.382083615628"," Hart","",""
"Whitaker Cemetery","DeRidder"," Louisiana"," United States","1391-1415 Louisiana 26 DeRidder, Beauregard, Louisiana, 70634 United States","-93.206924871521","30.814539399359"," Beauregard","",""
"Whispering Pines Cemetery","Bastrop"," Louisiana"," United States","1305-1383 Martin L King South Bastrop, Morehouse, Louisiana, 71220 United States","-91.925014821223","32.762342983432"," Morehouse","",""
"Whispering Pines Cemetery","Minden"," Louisiana"," United States","16346 US Route 371 Minden, Webster Parish, Louisiana, 71055 United States","-93.375388954357","32.680456962262"," Webster Parish","",""
"Whipp Cemetery","Bunkie"," Louisiana"," United States","167-253 Courvelle Rd Bunkie, St Landry, Louisiana, 71322 United States","-92.068304672342","30.709896010888"," St Landry","",""
"Whetstone Cemetery","Bastrop"," Louisiana"," United States","5895-6015 Rebel Rest Road Bastrop, Morehouse, Louisiana, 71220 United States","-91.89621","32.81661"," Morehouse","",""
"Wheaton Cemetery","Homer"," Louisiana"," United States","633 Homer Oilfield Rd Homer, Claiborne, Louisiana, 71040 United States","-93.161403314947","32.803580057713"," Claiborne","",""
"Whatley Cemetery","Jena"," Louisiana"," United States","171-299 Magnolia Loop Jena, La Salle, Louisiana, 71342 United States","-92.19194","31.516939"," La Salle","",""
"Wheat Cemetery","Livingston"," Louisiana"," United States","24445-24687 S Satsuma Rd Livingston, Livingston, Louisiana, 70754 United States","-90.777495934276","30.429710160957"," Livingston","",""
"Whatley Cemetery","Pollock"," Louisiana"," United States","Shumac Bayou Pollock, La Salle, Louisiana, 71467 United States","-92.298607","31.5875"," La Salle","",""
"Megee/Phillips Cemetery","Nicholasville"," Kentucky"," United States","100-198 Green Sentinel Drive Nicholasville, Jessamine, Kentucky, 40356 United States","-84.633494618046","37.82091567475"," Jessamine","",""
"White Castle Cemetery","White Castle"," Louisiana"," United States","718-1098 Adams Dr White Castle, Iberville, Louisiana, 70788 United States","-91.150551095021","30.165673412352"," Iberville","",""
"White - Lattier","Shreveport"," Louisiana"," United States","Stone Creek Dr Shreveport, Caddo, Louisiana, 71106 United States","-93.706261","32.359325"," Caddo","",""
"Westlawn Memorial Park","1"," Louisiana"," United States","1517 Whitney Avenue 1, Jefferson, Louisiana, 70056 United States","-90.040056651564","29.90421667989"," Jefferson","",""
"Westmoreland Cemetery","Kentwood"," Louisiana"," United States","1570 Ethel Lane Kentwood, Saint Helena Parish, Louisiana, 70444 United States","-90.598061","30.923889"," Saint Helena Parish","",""
"Westlawn South Cemetery","Terrytown"," Louisiana"," United States","Wright Ave Terrytown, Jefferson, Louisiana, 70056 United States","-90.038831675165","29.895844470544"," Jefferson","",""
"Westlake Memorial Park","3"," Louisiana"," United States","689-899 Fletcher Road 3, Calcasieu, Louisiana, 70669 United States","-93.242112365265","30.280375867376"," Calcasieu","",""
"Moores Cemetery","Marble Hill"," Missouri"," United States","County Road 836 Marble Hill, Bollinger, Missouri, 63764 United States","-90.052324979862","37.388309262865"," Bollinger","",""
"Westgate Cemetery","New Orleans"," Louisiana"," United States","1026-1032 Lyons Street New Orleans, Orleans, Louisiana, 70115 United States","-90.10739","29.92197"," Orleans","",""
"Western Cemetery","Lutcher"," Louisiana"," United States","2601-2645 Courseault St Lutcher, St James, Louisiana, 70071 United States","-90.708910827146","30.049394115431"," St James","",""
"Moore Cemetery","Excelsior Springs"," Missouri"," United States","27105-27403 Ridge Rd Excelsior Springs, Clay, Missouri, 64024 United States","-94.253283514177","39.269882996227"," Clay","",""
"Moore Cemetery","Stotts City"," Missouri"," United States","Lawrence 2120 Stotts City, Lawrence, Missouri, 65756 United States","-93.978333","37.099998"," Lawrence","",""
"Moore Cemetery","Advance"," Missouri"," United States","County Road 331a Advance, Stoddard, Missouri, 63730 United States","-89.864998","36.993061"," Stoddard","",""
"Moore Cemetery","Mercer"," Missouri"," United States","Alps Ave Mercer, Mercer, Missouri, 64661 United States","-93.592494978605","40.566180917988"," Mercer","",""
"Westover Cemetery","Port Allen"," Louisiana"," United States","Unnamed Rd Port Allen, West Baton Rouge, Louisiana, 70767 United States","-91.288866069991","30.478538000554"," West Baton Rouge","",""
"Wham Cemetery","Monroe"," Louisiana"," United States","4442-4588 Highway 139 Monroe, Ouachita, Louisiana, 71229 United States","-91.933437082411","32.625477209323"," Ouachita","",""
"Moore Cemetery","Nevada"," Missouri"," United States","State Highway Bb Nevada, Vernon, Missouri, 64772 United States","-94.359728040871","37.817431592957"," Vernon","",""
"Moore Cemetery","Lebanon"," Missouri"," United States","13775-13923 County Road V-448 Lebanon, Laclede, Missouri, 65536 United States","-92.548332","37.532219"," Laclede","",""
"Moore Cemetery","Marshfield"," Missouri"," United States","Unnamed Rd Marshfield, Webster, Missouri, 65706 United States","-92.795490041975","37.288056195623"," Webster","",""
"Wetmore Cemetery","Ponchatoula"," Louisiana"," United States","14702 LA Hwy 22 Ponchatoula, Tangipahoa, Louisiana, 70454 United States","-90.477482784145","30.437844216385"," Tangipahoa","",""
"Moore Cemetery","Oran"," Missouri"," United States","1956 County Road 250 Oran, Scott, Missouri, 63771 United States","-89.631002535575","37.094851958178"," Scott","",""
"Moore Cemetery","Hartville"," Missouri"," United States","5024-5120 County Road 512 Hartville, Wright, Missouri, 65667 United States","-92.47139","37.228889"," Wright","",""
"Westlawn Memorial Cemetery","1"," Louisiana"," United States","3321 Loyola Drive 1, Jefferson, Louisiana, 70056 United States","-90.04096","29.90301"," Jefferson","",""
"Moore Cemetery","Spickard"," Missouri"," United States","116-198 NW 12th St Spickard, Grundy, Missouri, 64679 United States","-93.62374406152","40.236257978586"," Grundy","",""
"Moontown Cemetery","De Soto"," Missouri"," United States","Unnamed Rd De Soto, Jefferson, Missouri, 63020 United States","-90.582665966669","38.018879274832"," Jefferson","",""
"Montrose Cemetery","Montrose"," Missouri"," United States","SW Hwy K Montrose, Henry, Missouri, 64770 United States","-94.003891","38.256939"," Henry","",""
"Montgomery Cemetery","Greenfield"," Missouri"," United States","County Road 113 Greenfield, Dade, Missouri, 65661 United States","-93.879997","37.485001"," Dade","",""
"Moore Cemetery","Osceola"," Missouri"," United States","SE 200 Rd Osceola, St Clair, Missouri, 64776 United States","-93.772532543267","37.991631538196"," St Clair","",""
"Montgomery Cemetery","Wayne"," Missouri"," United States","Wayne, Missouri, 63964 United States","-90.468755112787","37.196885124636","","",""
"Montgomery Cemetery","Poplar Bluff"," Missouri"," United States","265-499 Mosey Ln Poplar Bluff, Butler, Missouri, 63901 United States","-90.473758523464","36.763862238549"," Butler","",""
"Monsees Cemetery","Cole Camp"," Missouri"," United States","Road 651 Cole Camp, Benton, Missouri, 65325 United States","-93.155556403879","38.430985424076"," Benton","",""
"Monroe Cemetery","Ravenwood"," Missouri"," United States","40001-41999 270th St Ravenwood, Nodaway, Missouri, 64479 United States","-94.605641019465","40.328960948879"," Nodaway","",""
"Industry City Cemetery","Industry"," Illinois"," United States","200-214 Price St Industry, McDonough, Illinois, 61440 United States","-90.605709942164","40.331022986181"," McDonough","",""
"Montauk Cemetery","Current"," Missouri"," United States","Highway 119 Current, Dent, Missouri, 65560 United States","-91.686847630823","37.454358844101"," Dent","",""
"Indian Hill Cemetery","De Soto"," Illinois"," United States","5176-5594 N Reed Station Rd De Soto, Jackson, Illinois, 62924 United States","-89.189966864644","37.792450022336"," Jackson","",""
"Indian Creek Cemetery","Hamburg"," Illinois"," United States","Water Street Hamburg, Calhoun, Illinois, 62045 United States","-90.701810830366","39.199339821559"," Calhoun","",""
"Indian Field Cemetery","Lexington"," Illinois"," United States","25745 Pleasant Hill Road Lexington, McLean, Illinois, 61753 United States","-88.773688101852","40.617526467879"," McLean","",""
"Indepent Order of Odd fellows Cemetery","Ashley"," Illinois"," United States","Ashley, Washington, Illinois United States","-89.203978251534","38.328434572644"," Washington","",""
"Moore Cemetery","New Madrid"," Missouri"," United States","U.S. 62 New Madrid, New Madrid, Missouri, 63869 United States","-89.544441","36.631939"," New Madrid","",""
"Indian Grave Drainage District","Ursa"," Illinois"," United States","102 West Maple Avenue Ursa, Adams, Illinois, 62376 United States","-91.367371","40.074768"," Adams","",""
"Independent Order of Oddfellows Cemetery","Okawville"," Illinois"," United States","Walwin Dr Okawville, Washington, Illinois, 62271 United States","-89.562243407411","38.445193266024"," Washington","",""
"Independent Order of Oddfellows Cemetery","Du Quoin"," Illinois"," United States","E Keyes St Du Quoin, Perry, Illinois, 62832 United States","-89.227219","38.01778"," Perry","",""
"Independent Order of Oddfellows Cemetery","McLeansboro"," Illinois"," United States","Illinois 14 McLeansboro, Hamilton, Illinois, 62859 United States","-88.525558","38.088612"," Hamilton","",""
"Independent Order of Odd Fellows Cemetery","Percy"," Illinois"," United States","Coleman Ln Percy, Randolph, Illinois, 62272 United States","-89.630409047733","38.013297180479"," Randolph","",""
"Independence Cemetery","Quincy"," Illinois"," United States","1598 N 1150th Ave Quincy, Adams, Illinois, 62301 United States","-91.208061","39.924999"," Adams","",""
"Independence Cemetery","Ramsey"," Illinois"," United States","County Road 975 E Ramsey, Fayette, Illinois, 62080 United States","-89.070282","39.076672"," Fayette","",""
"Independence Cemetery","Golconda"," Illinois"," United States","Clanahan Rd Golconda, Pope, Illinois, 62938 United States","-88.560838281437","37.27320125523"," Pope","",""
"Indian Point Cemetery","Athens"," Illinois"," United States","Illinois 123 Athens, Menard, Illinois, 62613 United States","-89.714460457675","40.00212959645"," Menard","",""
"Miles Cemetery","Wiggins"," Mississippi"," United States","137-199 Miles Cemetary Dr Wiggins, Stone, Mississippi, 39577 United States","-88.969989769511","30.895646476569"," Stone","",""
"Immauel Lutheran Cemetery","Hinckley"," Illinois"," United States","12648-13998 Lee Rd Hinckley, DeKalb, Illinois, 60520 United States","-88.702502357722","41.790765666065"," DeKalb","",""
"Miles Cemetery","Benoit"," Mississippi"," United States","Mississippi 1 Benoit, Bolivar, Mississippi, 38725 United States","-91.057777","33.61694"," Bolivar","",""
"Independent Order of Oddfellows Cemetery","Marion"," Illinois"," United States","1715 Beverly Dr Marion, Williamson, Illinois, 62959 United States","-88.935707593523","37.745587058115"," Williamson","",""
"Independent Order of Oddfellows Cemetery","Moweaqua"," Illinois"," United States","Putman Rd Moweaqua, Shelby, Illinois, 62550 United States","-89.014717","39.638329"," Shelby","",""
"Midway Church Cemetery, Carroll County, Mississippi","Carroll"," Mississippi"," United States","County Road 31 Carroll, Mississippi United States","-89.858685693691","33.304378505748","","",""
"Miears Cemetery","New Albany"," Mississippi"," United States","1084-1198 County Road 124 New Albany, Union, Mississippi, 38652 United States","-88.934723","34.489719"," Union","",""
"Mikell Cemetery","Silver Creek"," Mississippi"," United States","Oak Grove Rd Silver Creek, Jefferson Davis, Mississippi, 39663 United States","-89.941195451255","31.620148760806"," Jefferson Davis","",""
"Independent Order of Oddfellows Cemetery","Xenia"," Illinois"," United States","West St Xenia, Clay, Illinois, 62899 United States","-88.640909152115","38.631641433656"," Clay","",""
"Midway Cemetery","Saucier"," Mississippi"," United States","17412-17682 U.S. 49 Saucier, Harrison, Mississippi, 39574 United States","-89.11731","30.54414"," Harrison","",""
"Midway Cemetery","Meadville"," Mississippi"," United States","1008 Mississippi Highway 184 Meadville, Franklin, Mississippi, 39653 United States","-90.87944","31.47028"," Franklin","",""
"Midway Cemetery ","Lamar"," Mississippi"," United States","30 Midway Church Road Lamar, Mississippi, 39482 United States","-89.5306829470825","31.2860393029882","","",""
"Midway Cemetery","Gloster"," Mississippi"," United States","387-655 Midway Rd Gloster, Amite, Mississippi, 39638 United States","-91.041735894231","31.137926398926"," Amite","",""
"Immanuel Lutheran Cemetery aka Des Plaines Cemetery","Des Plaines"," Illinois"," United States","1214 Rand Rd Des Plaines, Cook, Illinois, 60016 United States","-87.894932","42.052735"," Cook","",""
"Independent Order of Oddfellows Cemetery","Dahlgren Township"," Illinois"," United States","County Road 2000 North Dahlgren Township, Hamilton, Illinois, 62810 United States","-88.67412","38.19911"," Hamilton","",""
"Immanuel Lutheran Church Cemetery","Colfax"," Illinois"," United States","34001-34633 County Highway 8 Colfax, McLean, Illinois, 61728 United States","-88.600960424916","40.639234945075"," McLean","",""
"Midway Cemetery","Woodland"," Mississippi"," United States","100-174 County Road 417 Woodland, Chickasaw, Mississippi, 39776 United States","-89.13631507506","33.826469598282"," Chickasaw","",""
"Midway Cemetery","West"," Mississippi"," United States","Lively Stone Rd West, Carroll, Mississippi, 39192 United States","-89.839166999802","33.303083031466"," Carroll","",""
"Midway Cemetery","Oxford"," Mississippi"," United States","County Road 273 Oxford, Lafayette, Mississippi, 38655 United States","-89.373879935411","34.33115548295"," Lafayette","",""
"Midway Cemetery","Carthage"," Mississippi"," United States","3725-4837 Midway Rd Carthage, Leake, Mississippi, 39051 United States","-89.441325143637","32.807576665609"," Leake","",""
"Midway Cemetery","Morton"," Mississippi"," United States","1547 Midway Rd Morton, Rankin, Mississippi, 39117 United States","-89.764201749881","32.504131891485"," Rankin","",""
"Midway Cemetery","Gloster"," Mississippi"," United States","301-385 Midway Rd Gloster, Amite, Mississippi, 39638 United States","-91.041672","31.137501"," Amite","",""
"Middleton Grove Cemetery","Canton"," Mississippi"," United States","114 Owens Road Canton, Madison, Mississippi, 39046 United States","-90.03686260292","32.698666953809"," Madison","",""
"Midway Cemetery","Abbeville"," Mississippi"," United States","Road 2064 Abbeville, Lafayette, Mississippi, 38601 United States","-89.38028","34.48333"," Lafayette","",""
"Midway Cemetery","Vardaman"," Mississippi"," United States","County Road 454 Vardaman, Calhoun, Mississippi, 38878 United States","-89.161344469512","33.82676416026"," Calhoun","",""
"Middleton Field Cemetery","Braxton"," Mississippi"," United States","Braxton, Simpson, Mississippi, 39044 United States","-90.003326","32.082779"," Simpson","",""
"Midway Baptist Church Cemetery ","Newton"," Mississippi"," United States","1900-1998 Old Highway 15 Newton, Newton, Mississippi, 39345 United States","-89.139207350999","32.37879660852"," Newton","",""
"Patrick Cemetery","Greensburg"," Indiana"," United States","4254-4498 S County Road 600 W Greensburg, Decatur, Indiana, 47240 United States","-85.592002273503","39.271474250669"," Decatur","",""
"Patrick Cemetery","Cayuga"," Indiana"," United States","2040 W State Road 234 Cayuga, Vermillion, Indiana, 47928 United States","-87.50028","39.94694"," Vermillion","",""
"Patoka Memorial Cemetery","French Lick"," Indiana"," United States","Unnamed Rd French Lick, Orange, Indiana, 47432 United States","-86.602783","38.43861"," Orange","",""
"Midway Cemetery","Lucedale"," Mississippi"," United States","100-198 Midway Church Rd Lucedale, George, Mississippi, 39452 United States","-88.428612","30.760281"," George","",""
"Parrish Cemetery","Shelbyville"," Indiana"," United States","5360-5484 S Columbus Rd Shelbyville, Shelby, Indiana, 46176 United States","-85.806951311751","39.446813103161"," Shelby","",""
"Pashan Cemetery","Middlebury"," Indiana"," United States","10138-10142 W 050 N Middlebury, LaGrange, Indiana, 46540 United States","-85.62392762559","41.647228470299"," LaGrange","",""
"Parson Cemetery","Sullivan"," Indiana"," United States","2750-3498 W County Road 450 S Sullivan, Sullivan, Indiana, 47882 United States","-87.462502","39.020828"," Sullivan","",""
"Parkison Cemetery","Rensselaer"," Indiana"," United States","20 E Rensselaer, Jasper, Indiana, 47978 United States","-87.045597331241","40.986544196306"," Jasper","",""
"Parks Cemetery","Delphi"," Indiana"," United States","2701 W 750 N Delphi, Carroll, Indiana, 46923 United States","-86.588740561576","40.656837538835"," Carroll","",""
"Parker-Ragland Cemetery","Perry"," Indiana"," United States","2601 Old Henderson Road Perry, Vanderburgh, Indiana, 47712 United States","-87.622644429549","37.94952604036"," Vanderburgh","",""
"Parkison Cemetery","Columbus"," Indiana"," United States","2898 S 1025 E Columbus, Bartholomew, Indiana, 47203 United States","-85.720558","39.174721"," Bartholomew","",""
"Patoka Memorial Cemetery","French Lick"," Indiana"," United States","Unnamed Rd French Lick, Orange, Indiana, 47432 United States","-86.601936","38.438889"," Orange","",""
"Pate Cemetery","Dillsboro"," Indiana"," United States","4301-4675 Milton Bear Branch Rd Dillsboro, Ohio, Indiana, 47018 United States","-85.071671","38.939171"," Ohio","",""
"Parr-Jones Cemetery","Sheridan"," Indiana"," United States","2000-2202 Big Springs Rd Sheridan, Boone, Indiana, 46069 United States","-86.261077655853","40.071127959807"," Boone","",""
"Oak Hill Cemetery","Coon Rapids"," Iowa"," United States","30879-30999 Twilight Ave Coon Rapids, Carroll, Iowa, 50058 United States","-94.720001","41.905281"," Carroll","",""
"Parker Moore Cemetery","Muncie"," Indiana"," United States","4001-4349 E Memorial Dr Muncie, Delaware, Indiana, 47302 United States","-85.340783609027","40.178326877736"," Delaware","",""
"Parker Cemetery","St. Joseph"," Indiana"," United States","5900 St Joe Rd St. Joseph, Allen, Indiana, 46835 United States","-85.09884","41.13343"," Allen","",""
"Parks Memorial Cemetery","Bourbon"," Indiana"," United States","600-698 S Bourbon St Bourbon, Marshall, Indiana, 46504 United States","-86.11972","41.289719"," Marshall","",""
"Oak Hill Cemetery","Corning"," Iowa"," United States","Unnamed Rd Corning, Adams, Iowa, 50841 United States","-94.736971407404","40.976472000495"," Adams","",""
"Park Cemetery","Greenfield"," Indiana"," United States","Tague St Greenfield, Hancock, Indiana, 46140 United States","-85.764717","39.778332"," Hancock","",""
"Park Lawn Cemetery","Jackson Township"," Indiana"," United States","10317 South 700 East Jackson Township, Miami, Indiana, 46911 United States","-85.93833","40.61417"," Miami","",""
"Oak Hill","Tiffin Clear Creek"," Iowa"," United States","441-745 Historic US 6 Tiffin Clear Creek, Johnson, Iowa, 52340 United States","-91.668521850255","41.70713066538"," Johnson","",""
"Park Lawn Cemetery","Evansville"," Indiana"," United States","Covert Ave Evansville, Vanderburgh, Indiana, 47715 United States","-87.489723","37.956108"," Vanderburgh","",""
"Oak Grove Cemetery","Boone"," Iowa"," United States","1747-1799 205th St Boone, Boone, Iowa, 50036 United States","-93.824997","42.056938"," Boone","",""
"Oak Hill Cemetery","Irwin"," Iowa"," United States","Road M47 Irwin, Shelby, Iowa, 51446 United States","-95.207497","41.781391"," Shelby","",""
"Park Cemetery","Fairmount"," Indiana"," United States","8336-8466 S 150 E Fairmount, Grant, Indiana, 46928 United States","-85.644997","40.431938"," Grant","",""
"Parkview Cemetery","Alexandria"," Indiana"," United States","1101 S Park Ave Alexandria, Madison, Indiana, 46001 United States","-85.668892","40.25333"," Madison","",""
"Oak Grove Cemetery","Des Moines"," Iowa"," United States","2132 Easton Blvd Des Moines, Polk, Iowa, 50317 United States","-93.580276","41.604172"," Polk","",""
"Oak Grove Cemetery","Mitchell"," Iowa"," United States","Ellicott St Mitchell, Mitchell, Iowa, 50461 United States","-92.870827","43.315559"," Mitchell","",""
"Oak Hill Cemetery","Atlantic"," Iowa"," United States","1551-1577 320th St Atlantic, Audubon, Iowa, 50022 United States","-94.993303763228","41.545134507098"," Audubon","",""
"Oak Grove Cemetery","Letts"," Iowa"," United States","1400-1488 Oak Grove Rd Letts, Muscatine, Iowa, 52754 United States","-91.28611","41.389721"," Muscatine","",""
"Oak Hill Cemetery","Williamsburg"," Iowa"," United States","Maplewood Ave Williamsburg, Iowa, Iowa, 52361 United States","-91.998611","41.653332"," Iowa","",""
"Oak Hill Cemetery","Hancock"," Iowa"," United States","44400-44474 Mahogany Rd Hancock, Pottawattamie, Iowa, 51536 United States","-95.336967997046","41.390590815376"," Pottawattamie","",""
"Oak Grove Cemetery","Missouri Valley"," Iowa"," United States","3349-3449 Lima Trail Missouri Valley, Harrison, Iowa, 51555 United States","-95.865381986658","41.516632673609"," Harrison","",""
"Oak Hill Cemetery","Cedar Rapids"," Iowa"," United States","1705 Mount Vernon Road SE Cedar Rapids, Linn, Iowa, 52403 United States 
                         
                    ","-91.645389338623","41.976332680945"," Linn","https://oakhillcemeterycr.com/",""
"Oak Hill Cemetery","Coralville"," Iowa"," United States","Russell Slade Blvd Coralville, Johnson, Iowa, 52241 United States","-91.565277","41.689171"," Johnson","",""
"Meade Cemetery","Hagerhill"," Kentucky"," United States","U.S. 23 Hagerhill, Johnson, Kentucky, 41222 United States","-82.83139","37.798061"," Johnson","",""
"Oak Grove Cemetery","Clarinda"," Iowa"," United States","2189-2199 Tolbert Ave Clarinda, Page, Iowa, 51632 United States","-94.992783","40.7425"," Page","",""
"Oak Hill Cemetery","Tiffin"," Iowa"," United States","2375-2449 U.S. 6 Tiffin, Johnson, Iowa, 52340 United States","-91.695255179114","41.710758917605"," Johnson","",""
"Oak Dale Cemetery","Lovilia"," Iowa"," United States","5020 110th St Lovilia, Monroe, Iowa, 50150 United States","-93.098561403736","41.14661830971"," Monroe","",""
"McWhorter Cemetery","Jamestown"," Kentucky"," United States","State Highway 1266 Jamestown, Clinton, Kentucky, 42629 United States","-85.123114115524","36.81551897016"," Clinton","",""
"Meadows Cemetery","Argillite"," Kentucky"," United States","Argillite, Greenup, Kentucky, 41121 United States","-82.960281","38.516109"," Greenup","",""
"McWhort Cemetery","Clinton"," Kentucky"," United States","Clinton, Hickman, Kentucky United States","-88.956772740794","36.697594340218"," Hickman","",""
"Oak Grove Cemetery","Lehigh"," Iowa"," United States","Unnamed Rd Lehigh, Webster, Iowa, 50557 United States","-94.047501","42.343891"," Webster","",""
"McPhearson Cemetery","Lewisburg"," Kentucky"," United States","101-165 Moore Rd Lewisburg, Todd, Kentucky, 42256 United States","-87.057641575402","37.054850433772"," Todd","",""
"McPherson Cemetery","Tompkinsville"," Kentucky"," United States","701 Mcpherson Cemetery Rd Tompkinsville, Monroe, Kentucky, 42167 United States","-85.756029812519","36.824691906433"," Monroe","",""
"Meahl Cemetery","Henderson"," Kentucky"," United States","Kentucky 1217 Henderson, Henderson, Kentucky, 42420 United States","-87.614508216949","37.71383194418"," Henderson","",""
"McQuinn Cemetery","Jackson"," Kentucky"," United States","16769-17211 Kentucky 30 Jackson, Breathitt, Kentucky, 41339 United States","-83.201142965542","37.592293889018"," Breathitt","",""
"McRoberts Cemetery","McRoberts"," Kentucky"," United States","County Road 1070 McRoberts, Letcher, Kentucky, 41835 United States","-82.67989826513","37.204258547899"," Letcher","",""
"McNeely Cemetery","Dawson Springs"," Kentucky"," United States","970-1208 Walton Calvert Rd Dawson Springs, Hopkins, Kentucky, 42408 United States","-87.724167","37.215561"," Hopkins","",""
"McNutt Cemetery","West Point"," Kentucky"," United States","2185-2187 Weavers Run Rd West Point, Bullitt, Kentucky, 40177 United States","-85.894147698493","38.026116462301"," Bullitt","",""
"McNeil Cemetery","Boaz"," Kentucky"," United States","Boaz, Graves, Kentucky, 42027 United States","-88.645279","36.913609"," Graves","",""
"Oak Grove Cemetery","Des Moines"," Iowa"," United States","2912 Rose Ave Des Moines, Polk, Iowa, 50321 United States","-93.658058","41.548611"," Polk","",""
"McNatt Cemetery","Benton"," Kentucky"," United States","1-299 Memory Ln Benton, Marshall, Kentucky, 42025 United States","-88.342327594611","36.907759652321"," Marshall","",""
"McMurry Cemetery","Hebron"," Kentucky"," United States","Hebron, Boone, Kentucky, 41048 United States","-84.804443","39.104439"," Boone","",""
"McNealy Cemetery","Dawson Springs"," Kentucky"," United States","Dawson Springs, Hopkins, Kentucky, 42408 United States","-87.78611","37.220829"," Hopkins","",""
"McMullin Cemetery","Robards"," Kentucky"," United States","7233-7237 Kentucky 1299 Robards, Henderson, Kentucky, 42452 United States","-87.575872739332","37.679652061621"," Henderson","",""
"McMurray Chapel Cemetery","Smithland"," Kentucky"," United States","McMurray Road Smithland, Livingston, Kentucky, 42081 United States","-88.450638847336","37.256901876389"," Livingston","",""
"Oak Grove Cemetery","Mt Pleasant"," Iowa"," United States","1865-1887 Hickory Ave Mt Pleasant, Henry, Iowa, 52641 United States","-91.58139","41.032219"," Henry","",""
"McMillen Cemetery","Elizabethtown"," Kentucky"," United States","6400-6598 Shepherdsville Rd Elizabethtown, Hardin, Kentucky, 42701 United States","-85.855548845074","37.785418750883"," Hardin","",""
"McMillan Cemetery","DeMossville"," Kentucky"," United States","Sleeter Rd DeMossville, Pendleton, Kentucky, 41033 United States","-84.483063","38.736389"," Pendleton","",""
"Wesley Ray Cemetery","Angie"," Louisiana"," United States","62201-63199 James Martin Rd S Angie, Washington, Louisiana, 70426 United States","-89.83478581175","30.972408427975"," Washington","",""
"West Cemetery","Pitkin"," Louisiana"," United States","Unnamed Rd Pitkin, Vernon, Louisiana, 70656 United States","-92.825599034434","30.897307928967"," Vernon","",""
"West Oak Lane Cemetery","Maringouin"," Louisiana"," United States","13507-14199 Louisiana 76 Maringouin, Iberville, Louisiana, 70757 United States","-91.519900842702","30.43840608497"," Iberville","",""
"Wesley Chapel Cemetery","Coushatta"," Louisiana"," United States","Gus Smith Rd Coushatta, Red River, Louisiana, 71019 United States","-93.368808017805","32.110249627268"," Red River","",""
"West Fork Cemetery","Moss Bluff"," Louisiana"," United States","506 S Perkins Ferry Rd Moss Bluff, Calcasieu, Louisiana, 70611 United States","-93.233137051083","30.2936149656"," Calcasieu","",""
"West Cemetery","Leesville"," Louisiana"," United States","Unnamed Rd Leesville, Vernon, Louisiana, 71446 United States","-93.156387","31.266939"," Vernon","",""
"McNeil Cemetery","Rockholds"," Kentucky"," United States","696-850 McNeil-Corn Creek Rd Rockholds, Whitley, Kentucky, 40759 United States","-84.111162865092","36.862093807777"," Whitley","",""
"Wells Cemetery","Lecompte"," Louisiana"," United States","Lecompte, Rapides, Louisiana, 71346 United States","-92.419724","31.05917"," Rapides","",""
"Welcome Cemetery","Leesville"," Louisiana"," United States","Unnamed Rd Leesville, Vernon, Louisiana, 71446 United States","-93.020893017661","31.276645816136"," Vernon","",""
"Wesley Cemetery","Pineville"," Louisiana"," United States","317-399 Hunter St Pineville, Rapides, Louisiana, 71360 United States","-92.434993740288","31.316677123806"," Rapides","",""
"Weiss","Mer Rouge"," Louisiana"," United States","11600-12198 Rush Harrison Road Mer Rouge, Morehouse, Louisiana, 71261 United States","-91.69402","32.77299"," Morehouse","",""
"Webster Cemetery","Midway"," Louisiana"," United States","Midway, La Salle, Louisiana, 71342 United States","-92.169206539335","31.683485967772"," La Salle","",""
"Welch Cemetery","Pearl River"," Louisiana"," United States","36279-36299 Ward Rd Pearl River, St Tammany, Louisiana, 70452 United States","-89.803624062633","30.488950600982"," St Tammany","",""
"Welcome Home Cemetery","Grayson"," Louisiana"," United States","Louisiana 126 Grayson, Caldwell, Louisiana, 71435 United States","-92.101869370953","32.038907260668"," Caldwell","",""
"Weaver Cemetery","Robeline"," Louisiana"," United States","2001-2299 Louisiana 120 Robeline, Natchitoches, Louisiana, 71469 United States","-93.108246623115","31.623273136167"," Natchitoches","",""
"Webb Cemetery","Homer"," Louisiana"," United States","2262-2270 Par Road 101 Homer, Claiborne, Louisiana, 71040 United States","-93.214614931691","32.795715377469"," Claiborne","",""
"Waxia Methodist Cemetery","St Landry"," Louisiana"," United States","Highway 359 St Landry, Louisiana, 70589 United States","-91.958954350209","30.665299629258","","",""
"Monger Cemetery","Christian"," Missouri"," United States","Johnson Road Christian, Missouri, 65642 United States","-93.092181171792","37.038049922609","","",""
"Weaver Cemetery","Saline"," Louisiana"," United States","301-399 Weaver Cemetery Spur Rd Saline, Natchitoches, Louisiana, 71070 United States","-93.053716021936","32.046695501489"," Natchitoches","",""
"Wayside Cemetery","Winnsboro"," Louisiana"," United States","119-199 Glynn Day Rd Winnsboro, Franklin, Louisiana, 71295 United States","-91.655528454993","32.152656131753"," Franklin","",""
"Way Way Cemetery","Lake Providence"," Louisiana"," United States","Par Road 2284 Lake Providence, East Carroll, Louisiana, 71254 United States","-91.204280697397","32.754916970005"," East Carroll","",""
"Mogler Cemetery","Jackson"," Missouri"," United States","3977 State Highway 72 Jackson, Cape Girardeau, Missouri, 63755 United States","-89.718817990478","37.386307630424"," Cape Girardeau","",""
"Moffett Graveyard","Willow Springs"," Missouri"," United States","County Road 1550 Willow Springs, Howell, Missouri, 65793 United States","-91.911066868482","36.962574292857"," Howell","",""
"Moeller Cemetery","Festus"," Missouri"," United States","7370 French Village Road Festus, Ste. Genevieve, Missouri, 63028 United States","-90.352921131367","38.018174868284"," Ste. Genevieve","",""
"Wenger Cemetery","Des Allemands"," Louisiana"," United States","16931 LA 631 Des Allemands, St. Charles Parish, Louisiana United States","-90.46157053806","29.8324817249"," St. Charles Parish","",""
"Mizer Cemetery","Lebanon"," Missouri"," United States","Unnamed Rd Lebanon, Laclede, Missouri, 65536 United States","-92.709212015213","37.765180105044"," Laclede","",""
"Wesley Chapel Cemetery","Ruston"," Louisiana"," United States","4108-4362 Louisiana 818 Ruston, Lincoln, Louisiana, 71270 United States","-92.687688146115","32.467950910178"," Lincoln","",""
"Mizell Cemetery","Doniphan"," Missouri"," United States","County Road a-5 Doniphan, Ripley, Missouri, 63935 United States","-90.869438","36.532219"," Ripley","",""
"Mitts Cemetery","Monticello"," Missouri"," United States","Unnamed Rd Monticello, Clark, Missouri, 63457 United States","-91.665439168387","40.319721608881"," Clark","",""
"Mitts Cemetery","Clarence"," Missouri"," United States","Oarlock Place Clarence, Macon, Missouri, 63437 United States","-92.291815041433","39.846541318036"," Macon","",""
"Mitchell Cemetery","Unionville"," Missouri"," United States","415th Rd Unionville, Putnam, Missouri, 63565 United States","-92.773834355807","40.541898234145"," Putnam","",""
"Mitts Cemetery","Dora"," Missouri"," United States","7900-7992 County Road 5950 Dora, Howell, Missouri, 65637 United States","-92.106667","36.763329"," Howell","",""
"Mitchell Cemetery","Licking"," Missouri"," United States","County Road 2780 Licking, Texas, Missouri, 65542 United States","-91.977691737801","37.576136006158"," Texas","",""
"Mitchell Cemetery","Eolia"," Missouri"," United States","542-586 Hall Rd Eolia, Lincoln, Missouri, 63344 United States","-90.925123207108","39.225792932562"," Lincoln","",""
"Mitchell Cemetery","Jasper"," Missouri"," United States","10268-10298 State Highway K Jasper, Jasper, Missouri, 64755 United States","-94.228570903052","37.337453181043"," Jasper","",""
"Mitchell Cemetery","Robertsville"," Missouri"," United States","Missouri O Robertsville, Franklin, Missouri, 63072 United States","-90.80300412667","38.411140127426"," Franklin","",""
"Mitchell Cemetery","New Madrid"," Missouri"," United States","State Highway P New Madrid, New Madrid, Missouri, 63869 United States","-89.549986882504","36.671597220208"," New Madrid","",""
"Mitchell Cemetery","Lexington"," Missouri"," United States","9400-9538 Howe Rd Lexington, Lafayette, Missouri, 64067 United States","-93.929528830692","39.129623096901"," Lafayette","",""
"Mitchell Cemetery","Crocker"," Missouri"," United States","County Road Dd-538 Crocker, Pulaski, Missouri, 65452 United States","-92.198215912451","37.932907908902"," Pulaski","",""
"Mitchell-Reynolds Cemetery","Eolia"," Missouri"," United States","845 Leo Hardy Road Eolia, Lincoln, Missouri, 63344 United States","-90.955559","39.216389"," Lincoln","",""
"Mitchell Cemetery","Salem"," Missouri"," United States","State Highway H Salem, Dent, Missouri, 65560 United States","-91.668876628142","37.631689267807"," Dent","",""
"Mitchell Cemetery","Anderson"," Missouri"," United States","Patterson Creek Rd Anderson, McDonald, Missouri, 64831 United States","-94.544830763054","36.66231762471"," McDonald","",""
"Mitchell Cemetery","Gilman City"," Missouri"," United States","33430-33436 E 400th St Gilman City, Harrison, Missouri, 64642 United States","-93.799515149615","40.135688721493"," Harrison","",""
"Immanuel Lutheran Cemetery","Effingham"," Illinois"," United States","12900-13248 1000th Ave Effingham, Effingham, Illinois, 62401 United States","-88.561668","39.062222"," Effingham","",""
"Immanuel Lutheran Cemetery","Altamont"," Illinois"," United States","1868-3208 E Cumberland Rd Altamont, Effingham, Illinois, 62411 United States","-88.734717462729","39.05976372734"," Effingham","",""
"Mitchell Cemetery","Park Hills"," Missouri"," United States","1361 Robert St Park Hills, St Francois, Missouri, 63601 United States","-90.579824132721","37.848869431409"," St Francois","",""
"Immanuel Lutheran Cemetery","Arenzville"," Illinois"," United States","3313-3485 Honey Point Rd Arenzville, Cass, Illinois, 62611 United States","-90.514811713117","39.891244381643"," Cass","",""
"Immanuel Lutheran Cemetery","Mt Olive"," Illinois"," United States","County Road 29 Mt Olive, Macoupin, Illinois, 62069 United States","-89.732224","39.080002"," Macoupin","",""
"Immanuel Lutheran Cemetery","Carthage"," Illinois"," United States","975-977 N County Road 1900 Carthage, Hancock, Illinois, 62321 United States","-91.141613305555","40.339430822234"," Hancock","",""
"Immanuel Lutheran Cemetery","Onarga"," Illinois"," United States","1019-1097 N 1300 East Rd Onarga, Iroquois, Illinois, 60955 United States","-87.884891661377","40.636497618482"," Iroquois","",""
"Immaculate Conception Cemetery","Dieterich"," Illinois"," United States","401 Old Mill Rd Dieterich, Effingham, Illinois, 62424 United States","-88.370819376218","39.058836944586"," Effingham","",""
"Immanuel Lutheran Cemetery","Broadlands"," Illinois"," United States","394 County Road 2400 E Broadlands, Champaign, Illinois, 61816 United States","-88.009184128886","39.936058744719"," Champaign","",""
"Immanuel Cemetery","Red Bud"," Illinois"," United States","5900-5968 Beck Rd Red Bud, Monroe, Illinois, 62278 United States","-89.943804442645","38.283904442498"," Monroe","",""
"Immaculate Conception Cemetery","Bridgeport"," Illinois"," United States","County Road 11 Bridgeport, Lawrence, Illinois, 62417 United States","-87.786824825769","38.657263230936"," Lawrence","",""
"Immaculate Conception Cemetery","Lostant"," Illinois"," United States","1640-1698 Meridian Rd Lostant, Putnam, Illinois, 61334 United States","-89.162180162899","41.173005050118"," Putnam","",""
"Immanuel Lutheran Cemetery","Rock Island"," Illinois"," United States","2500-2598 24th Ave Rock Island, Rock Island, Illinois, 61201 United States","-90.56472","41.485828"," Rock Island","",""
"Immaculate Conception Cemetery","Tamaroa"," Illinois"," United States","Parakeet Rd Tamaroa, Perry, Illinois, 62888 United States","-89.260285175533","38.140286845707"," Perry","",""
"Middleton Creek Cemetery","Liberty"," Mississippi"," United States","Middleton Creek Rd Liberty, Franklin, Mississippi, 39645 United States","-90.823364866763","31.381627477165"," Franklin","",""
"Immaculate Conception Cemetery","Villa Grove"," Illinois"," United States","295-299 County Road 1800 E Villa Grove, Champaign, Illinois, 61956 United States","-88.123611","39.923328"," Champaign","",""
"Immanuel Lutheran Cemetery","Yorkville"," Illinois"," United States","9616-9698 Immanuel Rd Yorkville, Kendall, Illinois, 60560 United States","-88.454234373015","41.581478278417"," Kendall","",""
"Middleton Cemetery","Roxie"," Mississippi"," United States","Knoxville Rd Roxie, Franklin, Mississippi, 39661 United States","-91.036112815773","31.425185711017"," Franklin","",""
"Mexican Cemetery","Shaw"," Mississippi"," United States","Unnamed Rd Shaw, Bolivar, Mississippi, 38773 United States","-90.849998","33.616112"," Bolivar","",""
"Immaculate Conception Cemetery","Shawneetown"," Illinois"," United States","12101-12109 County Road 3 Shawneetown, Gallatin, Illinois, 62984 United States","-88.138260977589","37.735719982203"," Gallatin","",""
"Immanuel Lutheran Cemetery","Glenview"," Illinois"," United States","Chestnut Avenue Glenview, Cook, Illinois, 60026 United States","-87.80368058209","42.087037371856"," Cook","",""
"Immanuel Cemetery ","Edwardsville"," Illinois"," United States","Staunton Road Edwardsville, Madison, Illinois United States","-89.855893","38.869628"," Madison","",""
"Methodist Cemetery","Starkville"," Mississippi"," United States","Cedar Bluff-Hebron Rd Starkville, Clay, Mississippi, 39759 United States","-88.910328849806","33.614389478036"," Clay","",""
"Immanual United Church Of Christ Cemetery","Streamwood"," Illinois"," United States","1500 Old Church Road, Streamwood Il Streamwood, Cook, Illinois, 60107 United States 
                         
                    ","-88.1482428787172","42.0329372891406"," Cook","https://streamwoodiucc.org/",""
"Methodist Cemetery","Coldwater"," Mississippi"," United States","Peyton Rd Coldwater, Tate, Mississippi, 38618 United States","-89.961608233713","34.684703361194"," Tate","",""
"Immanuel Cemetery","Hillside"," Illinois"," United States","2201 S Wolf Rd Hillside, Cook, Illinois, 60162 United States","-87.900284","41.84639"," Cook","",""
"Methodist Cemetery","Noxapater"," Mississippi"," United States","Methodist Cemetary St Noxapater, Winston, Mississippi, 39346 United States","-89.060799029109","32.987623294878"," Winston","",""
"Metcalfe Cemetery","Hollandale"," Mississippi"," United States","Hollandale, Washington, Mississippi, 38748 United States","-91.117125390209","33.098034036158"," Washington","",""
"Mess Ridge Cemetery","Woodville"," Mississippi"," United States","Woodville, Wilkinson, Mississippi, 39669 United States","-91.516937","31.036671"," Wilkinson","",""
"Immaculate Conception Cemetery","Columbia"," Illinois"," United States","Historic Ct Columbia, Monroe, Illinois, 62236 United States","-90.192223","38.446671"," Monroe","",""
"Merrill Cemetery","Coila"," Mississippi"," United States","County Road 178 Coila, Carroll, Mississippi, 38923 United States","-90.046387","33.402222"," Carroll","",""
"Merritt Cemetery","Leakesville"," Mississippi"," United States","Merritt Rd Leakesville, Greene, Mississippi, 39451 United States","-88.751144404","31.052593025894"," Greene","",""
"Merit Cemetery","Mendenhall"," Mississippi"," United States","283-285 Merit Welch Rd Mendenhall, Simpson, Mississippi, 39114 United States","-89.903084598284","31.925030451136"," Simpson","",""
"Merrill Cemetery","Lucedale"," Mississippi"," United States","101-127 Merrill Cemetery Rd Lucedale, George, Mississippi, 39452 United States","-88.716564028413","30.96749247014"," George","",""
"Mercy Seat Cemetery","Hazlehurst"," Mississippi"," United States","1137-1169 Mercy Seat Rd Hazlehurst, Copiah, Mississippi, 39083 United States","-90.593891496502","31.716666362144"," Copiah","",""
"Menasco Cemetery","Shubuta"," Mississippi"," United States","Waynesboro Shubuta Road Shubuta, Wayne, Mississippi, 39360 United States","-88.718744166038","31.835426998027"," Wayne","",""
"Middleton Cemetery","Louisville"," Mississippi"," United States","3300-3360 Middleton Rd Louisville, Winston, Mississippi, 39339 United States","-88.939624306081","32.947890951345"," Winston","",""
"Merchant Cemetery","Magee"," Mississippi"," United States","Smith County Road 503 Magee, Smith, Mississippi, 39111 United States","-89.647217","32.033611"," Smith","",""
"Memory Gardens Cemetery","Stringer"," Mississippi"," United States","29 County Road 21 Stringer, Jasper, Mississippi, 39481 United States","-89.174912921782","31.832205552118"," Jasper","",""
"Palmyra Cemetery","Palmyra"," Indiana"," United States","619 Marshall St Palmyra, Harrison, Indiana, 47164 United States","-86.115312739037","38.402852427357"," Harrison","",""
"Memory Gardens","Madison"," Mississippi"," United States","745-765 U.S. 51 Madison, Madison, Mississippi, 39110 United States","-90.120003","32.446671"," Madison","",""
"Memory Gardens","Okolona"," Mississippi"," United States","711-799 Mississippi 245 Okolona, Chickasaw, Mississippi, 38860 United States","-88.751389","34.029999"," Chickasaw","",""
"Palmer Funeral Home - Lakeville Chapel","Union"," Indiana"," United States","314 South Michigan Street Union, St Joseph, Indiana, 46536 United States","-86.27442","41.52152"," St Joseph","",""
"Paris Cemetery","Michigantown"," Indiana"," United States","Unnamed Rd Michigantown, Clinton, Indiana, 46057 United States","-86.397892338619","40.29538260692"," Clinton","",""
"Palmer Funeral Homes - Guisinger Chapel","Portage"," Indiana"," United States","3506 South Michigan Street Portage, St Joseph, Indiana, 46614 United States","-86.24991","41.63653"," St Joseph","",""
"Palestine Cemetery","Wolcott"," Indiana"," United States","6680-6764 W 400 N Wolcott, White, Indiana, 47995 United States","-86.999917219578","40.808617120622"," White","",""
"Palestine Cemetery","Wolcott"," Indiana"," United States","6680-6764 W 400 N Wolcott, White, Indiana, 47995 United States","-86.999443","40.808331"," White","",""
"Palestine Cemetery","Spencer"," Indiana"," United States","Palistine Cemetery Rd Spencer, Owen, Indiana, 47460 United States","-86.861671","39.312778"," Owen","",""
"Page Cemetery","Francisco"," Indiana"," United States","County Road 250 North Francisco, Gibson, Indiana, 47670 United States","-87.484928238072","38.390216133418"," Gibson","",""
"Page Cemetery","North Salem"," Indiana"," United States","8150-8998 W County Road 550 North North Salem, Hendricks, Indiana, 46165 United States","-86.67787","39.84387"," Hendricks","",""
"Meridian Memorial Park","Meridian"," Mississippi"," United States","Old Hwy 80 West Meridian, Lauderdale, Mississippi, 39307 United States","-88.776756421433","32.350602406786"," Lauderdale","",""
"Owensburg Cemetery","Jackson"," Indiana"," United States","12041 East Wilson Court Jackson, Greene, Indiana, 47462 United States","-86.721036271152","38.915934652219"," Greene","",""
"Oxford Cemetery","Oxford"," Indiana"," United States","3268 E Sr 352 Oxford, Benton, Indiana, 47971 United States","-87.259438","40.51833"," Benton","",""
"Oxford Cemetery","Tippecanoe"," Indiana"," United States","East County Line Road Tippecanoe, Indiana, 47905 United States","-86.695126611857","40.394807870338","","",""
"Owens Cemetery","Brazil"," Indiana"," United States","Brazil, Clay, Indiana, 47834 United States","-87.118332","39.554169"," Clay","",""
"Owens Cemetery","Scottsburg"," Indiana"," United States","3999 E Bridgewater Rd Scottsburg, Scott, Indiana, 47170 United States","-85.701281784781","38.635168689951"," Scott","",""
"Owens Cemetery","Bloomfield"," Indiana"," United States","917 Wilson Road Bloomfield, Greene, Indiana, 47424 United States","-86.930557","39.124439"," Greene","",""
"Overturf Cemetery","Madison"," Indiana"," United States","10639-10999 S County Road 275 W Madison, Ripley, Indiana, 47250 United States","-85.313332","38.915562"," Ripley","",""
"Owen Cemetery","Greenfield"," Indiana"," United States","1507-1999 S Jacobi Rd Greenfield, Hancock, Indiana, 46140 United States","-85.862389440827","39.762653955833"," Hancock","",""
"Paoli Community Cemetery","Paoli"," Indiana"," United States","600 S Elm St Paoli, Orange, Indiana, 47454 United States","-86.475230406105","38.548751461836"," Orange","",""
"O'Brien Cemetery","Lovilia"," Iowa"," United States","Lovilia, Monroe, Iowa, 50150 United States","-93.074997","41.111111"," Monroe","",""
"Painter Cemetery","Middletown"," Indiana"," United States","6216 W County Road 950 N Middletown, Henry, Indiana, 47356 United States","-85.501389","40.069721"," Henry","",""
"Nye Cemetery","Muscatine"," Iowa"," United States","1956 Wildcat Den Rd Muscatine, Muscatine, Iowa, 52761 United States","-90.867262571803","41.463527715828"," Muscatine","",""
"Overman Cemetery","Marshall"," Indiana"," United States","2108 E 275 Marshall, Parke, Indiana, 47859 United States","-87.192223","39.811668"," Parke","",""
"O'Hare Place Cemetery","Dorchester"," Iowa"," United States","2201-2421 Iverson Bridge Rd Dorchester, Allamakee, Iowa, 52140 United States","-91.558327","43.408329"," Allamakee","",""
"Owens Cemetery","Williamsport"," Indiana"," United States","1830-2598 S 100 W Williamsport, Warren, Indiana, 47993 United States","-87.338016504303","40.287293745682"," Warren","",""
"O'Grady Cemetery","Grand River"," Iowa"," United States","Unnamed Rd Grand River, Decatur, Iowa, 50108 United States","-93.990562","40.864441"," Decatur","",""
"Nowlin Cemetery","Princeton"," Iowa"," United States","27800-28298 280th St Princeton, Scott, Iowa, 52768 United States","-90.355353101855","41.7141850176"," Scott","",""
"Numa Cemetery","Centerville"," Iowa"," United States","Liberty St Centerville, Appanoose, Iowa, 52544 United States","-92.97583","40.693062"," Appanoose","",""
"Nutting Cemetery","Clermont"," Iowa"," United States","6904-6930 Eagle Rd Clermont, Fayette, Iowa, 52135 United States","-91.724716","43.03056"," Fayette","",""
"Norwood Cemetery","Lacona"," Iowa"," United States","County Road H20 Lacona, Lucas, Iowa, 50139 United States","-93.489723","41.1175"," Lucas","",""
"Norwegian Methodist Cemetery","Decorah"," Iowa"," United States","2050-2060 County Road W42 Decorah, Winneshiek, Iowa, 52101 United States","-91.743332","43.235279"," Winneshiek","",""
"Norwegian Cemetery","Emmet"," Iowa"," United States","150th Street Emmet, Iowa, 51334 United States","-94.826579230803","43.430283293787","","",""
"Norwegian Lutheran Cemetery","Grinnell"," Iowa"," United States","4148-4150 60th St Grinnell, Poweshiek, Iowa, 50112 United States","-92.669366347104","41.694981269872"," Poweshiek","",""
"Norway Lake Cemetery","Eagle Grove"," Iowa"," United States","245th St Eagle Grove, Humboldt, Iowa, 50533 United States","-94.004723","42.695831"," Humboldt","",""
"Norway Center Cemetery","Wiota"," Iowa"," United States","69700-69784 Lansing Rd Wiota, Cass, Iowa, 50274 United States","-94.863591729914","41.345836591613"," Cass","",""
"Norwegian Cemetery","Holstein"," Iowa"," United States","1480-1484 Brady Ave Holstein, Ida, Iowa, 51025 United States","-95.623062","42.490559"," Ida","",""
"Norway Township Cemetery","Kanawha"," Iowa"," United States","1977-1989 County Road C20 Kanawha, Wright, Iowa, 50447 United States","-93.777275644189","42.863561816168"," Wright","",""
"McLoad Cemetery","Benton"," Kentucky"," United States","57 Chigger Point Lane Benton, Marshall, Kentucky, 42025 United States","-88.183327","36.867222"," Marshall","",""
"McKnight Cemetery","Westwood"," Kentucky"," United States","3205-3399 Bellefonte Princess Rd Westwood, Boyd, Kentucky, 41102 United States","-82.702217","38.477779"," Boyd","",""
"Norway Cemetery","Farmersburg"," Iowa"," United States","19296-19384 200th St Farmersburg, Clayton, Iowa, 52047 United States","-91.430283","42.93528"," Clayton","",""
"Norway Township Cemetery","Eagle Grove"," Iowa"," United States","260th St Eagle Grove, Humboldt, Iowa, 50533 United States","-94.004997","42.671391"," Humboldt","",""
"McKnight Cemetery","Dawson Springs"," Kentucky"," United States","18450-18798 Kentucky 109 Dawson Springs, Christian, Kentucky, 42408 United States","-87.62139471637","37.08885126503"," Christian","",""
"McKinney Missionary Baptist Church Cemetery","Science Hill"," Kentucky"," United States","3825 East Highway 635 Science Hill, Pulaski, Kentucky, 42553 United States","-84.576518468334","37.187986082892"," Pulaski","",""
"McKinney Hill Cemetery","Morgantown"," Kentucky"," United States","1100-1198 Woodbury Loop Morgantown, Butler, Kentucky United States","-86.67558","37.211377"," Butler","",""
"McKinney Cemetery","Hustonville"," Kentucky"," United States","6432-6434 Middleburg Rd Hustonville, Lincoln, Kentucky, 40437 United States","-84.775910320831","37.437422003477"," Lincoln","",""
"Nugents Grove Cemetery","Coggon"," Iowa"," United States","5772-5776 Nugents Rd Coggon, Linn, Iowa, 52218 United States","-91.50000022788","42.28006393977"," Linn","",""
"McKnight Cemetery","Herndon"," Kentucky"," United States","301-399 Wayne Hunt Rd Herndon, Christian, Kentucky, 42236 United States","-87.543331093594","36.66259294643"," Christian","",""
"McKinney Cemetery","Cadiz"," Kentucky"," United States","14803-14811 Old Dover Rd Cadiz, Trigg, Kentucky, 42211 United States","-87.820800041583","36.649221993274"," Trigg","",""
"Norwich Cemetery","Martelle"," Iowa"," United States","7538-7998 Iowa 1 Martelle, Jones, Iowa, 52305 United States","-91.34639","42.041939"," Jones","",""
"McKinney Cemetery","Greensburg"," Kentucky"," United States","2-382 Locust Grove Rd Greensburg, Green, Kentucky, 42743 United States","-85.523331","37.194172"," Green","",""
"Norwegian Cemetery","Marengo"," Iowa"," United States","1732-1746 P Ave Marengo, Iowa, Iowa, 52301 United States","-92.006111","41.753059"," Iowa","",""
"McKinney Cemetery","Greenville"," Kentucky"," United States","County Road 1323 Greenville, Todd, Kentucky, 42345 United States","-87.257132924858","37.067551930788"," Todd","",""
"McKinney Cemetery","Morgantown"," Kentucky"," United States","John Deere Rd Morgantown, Butler, Kentucky, 42261 United States","-86.712775761905","37.082134355141"," Butler","",""
"McKindree Church Cemetery","Stonewall"," Kentucky"," United States","Bridgeville Road Stonewall, Bracken, Kentucky, 41004 United States","-84.01242","38.599982"," Bracken","",""
"McKinney Cemetery","Somerset"," Kentucky"," United States","McKinney Cemetery Rd Somerset, Rockcastle, Kentucky, 42503 United States","-84.362266236434","37.259602277728"," Rockcastle","",""
"McKendree Chapel Cemetery","Monford"," Kentucky"," United States","McKendree Chapel Road Monford, Butler, Kentucky, 42261 United States","-86.644336563833","37.284243242739"," Butler","",""
"McKinney Cemetery","Beattyville"," Kentucky"," United States","County Road 1264 Beattyville, Lee, Kentucky, 41311 United States","-83.850691596675","37.597769878886"," Lee","",""
"McKiddy Cemetery","Siler"," Kentucky"," United States","255-261 Bennett Branch Rd Siler, Whitley, Kentucky, 40763 United States","-83.966314104031","36.691980498798"," Whitley","",""
"McKenzie Cemetery","Morehead"," Kentucky"," United States","1763-2023 Holly Fork Road Morehead, Rowan, Kentucky, 40351 United States","-83.356178045168","38.289594951692"," Rowan","",""
"Waverly Cemetery","Delhi"," Louisiana"," United States","Louisiana 577 Delhi, Madison, Louisiana, 71232 United States","-91.406554776034","32.457096131373"," Madison","",""
"Norway Cemetery","Norway"," Iowa"," United States","7606-7666 29th Ave Norway, Benton, Iowa, 52318 United States","-91.92778","41.909721"," Benton","",""
"McIntosh Cemetery","Ravenna"," Kentucky"," United States","Ravenna, Estill, Kentucky, 40472 United States","-83.879173","37.73111"," Estill","",""
"McKendree Chapel Cemetery","Franklin"," Kentucky"," United States","McKendree Church Road Franklin, Simpson, Kentucky, 42134 United States","-86.440564619121","36.703075114595"," Simpson","",""
"McKendree Methodist Church Cemetery","Mayfield"," Kentucky"," United States","Cr 301 Mayfield, Graves, Kentucky, 42066 United States","-88.528266065972","36.805895200244"," Graves","",""
"Watson Cemetery","Roseland"," Louisiana"," United States","Roseland, Tangipahoa, Louisiana, 70456 United States","-90.547422481664","30.79951768251"," Tangipahoa","",""
"Watts Cemetery","Ruston"," Louisiana"," United States","Par Road 115 Ruston, Lincoln, Louisiana, 71270 United States","-92.656818839685","32.507607503847"," Lincoln","",""
"Watson Cemetery","Pitkin"," Louisiana"," United States","Unnamed Rd Pitkin, Vernon, Louisiana, 70656 United States","-93.091125008221","31.104966223087"," Vernon","",""
"Washington Cemetery","St Francisville"," Louisiana"," United States","Louisiana 965 St Francisville, West Feliciana, Louisiana, 70775 United States","-91.30225186657","30.802543804631"," West Feliciana","",""
"Watson Cemetery","Coushatta"," Louisiana"," United States","Coushatta, Red River Parish, Louisiana, 71019 United States","-93.363892","32.166111"," Red River Parish","",""
"Watkin Cemetery","Lena"," Louisiana"," United States","1001-1081 Louisiana 8 Lena, Rapides, Louisiana, 71447 United States","-92.792301492974","31.40134233543"," Rapides","",""
"Washington Chapel Cemetery","Bastrop"," Louisiana"," United States","12499-12501 Crossett Road Bastrop, Morehouse, Louisiana, 71220 United States","-91.870659953639","32.8619458959"," Morehouse","",""
"McKendree United Methodist Church Cemetery","Kevil"," Kentucky"," United States","McKendree Church Road Kevil, McCracken, Kentucky, 42053 United States","-88.812774267408","37.052397418111"," McCracken","",""
"Watson/Mt.Erie Baptist Church","Port Vincent"," Louisiana"," United States","18121-18127 Savoy Ln Port Vincent, Livingston, Louisiana, 70726 United States","-90.840828","30.3325"," Livingston","",""
"Warren Cemetery","Franklinton"," Louisiana"," United States","27670-27998 J Warren Rd Franklinton, Washington, Louisiana, 70438 United States","-90.044889863028","30.924565969902"," Washington","",""
"Warren Cemetery","Independence"," Louisiana"," United States","54438-55498 Warren Ln Independence, Tangipahoa, Louisiana, 70443 United States","-90.513189964684","30.653487234144"," Tangipahoa","",""
"Warner Cemetery","Bastrop "," Louisiana"," United States","8770-8970 Greenfield Road Bastrop , Morehouse, Louisiana, 71220 United States","-91.798180831713","32.858113791169"," Morehouse","",""
"Warner Cemetery","Franklinton"," Louisiana"," United States","Par Road 270 Franklinton, Washington, Louisiana, 70438 United States","-90.166964033496","30.981952640357"," Washington","",""
"Walton Cemetery","Vivian"," Louisiana"," United States","10035 Myrtis Texas Line Road Vivian, Caddo Parish, Louisiana, 71082 United States","-94.0000865","32.9309846"," Caddo Parish","",""
"Warren Cemetery","Jonesville"," Louisiana"," United States","5321-5399 Louisiana 565 Jonesville, Concordia, Louisiana, 71343 United States","-91.737161763543","31.511422180542"," Concordia","",""
"Mitchell Cemetery","Edgar Springs"," Missouri"," United States","Unnamed Rd Edgar Springs, Phelps, Missouri, 65462 United States","-91.819400368007","37.687237783501"," Phelps","",""
"Ward Cemetery","Gilbert"," Louisiana"," United States","364-398 Ward Bend Rd Gilbert, Franklin, Louisiana, 71336 United States","-91.58333865462","32.079901240856"," Franklin","",""
"Waller Cemetery","Kentwood"," Louisiana"," United States","Unnamed Rd Kentwood, Tangipahoa, Louisiana, 70444 United States","-90.547287547295","30.896442913752"," Tangipahoa","",""
"Wallace Cemetery","Pelican"," Louisiana"," United States","Par Road 207 Pelican, De Soto, Louisiana, 71063 United States","-93.456328078799","31.896283055695"," De Soto","",""
"Walnut Ridge Cemetery","Quitman"," Louisiana"," United States","1138-1406 Arcadia Hwy Quitman, Jackson, Louisiana, 71268 United States","-92.75410871601","32.289822897345"," Jackson","",""
"Missouri Town 1855 Cemetery","Jackson"," Missouri"," United States","8010 East Park Road Jackson, Missouri, 64064 United States","-94.320956445798","38.976352623591","","",""
"Mise Cemetery","Denver"," Missouri"," United States","Mizer Cemetary Road Denver, Gentry, Missouri, 64441 United States","-94.304160485042","40.360460697594"," Gentry","",""
"Missouri Hill Cemetery","Fishing River"," Missouri"," United States","419-527 Cemetery Hill Road Fishing River, Clay, Missouri, 64072 United States","-94.296451579526","39.242178428598"," Clay","",""
"Walnut Grove Cemetery","West Monroe"," Louisiana"," United States","1725 Cooney Bonnett Road West Monroe, Ouachita, Louisiana United States","-92.308214839064","32.362113991273"," Ouachita","",""
"Walnut Hill Cemetery ","1"," Louisiana"," United States","10898 Walnut Hill Church Road 1, Caddo, Louisiana, 71082 United States","-94.02880458953","32.9291778452"," Caddo","",""
"Misemer Cemetery","Miller"," Missouri"," United States","19788 County Road 2045 Miller, Lawrence, Missouri, 65707 United States","-93.701393","37.20694"," Lawrence","",""
"Mitchell Campground Cemetery","Wishart"," Missouri"," United States","South 75th Road Wishart, Polk, Missouri, 65601 United States","-93.50241646","37.53631784"," Polk","",""
"Missouri Veterans Home Cemetery - St James","St. James"," Missouri"," United States","620 North Jefferson Street St. James, Phelps, Missouri, 65559 United States","-91.61775","38.00427"," Phelps","",""
"Mirabile Cemetery","Mirabile"," Missouri"," United States","7699 Southwest Locust Street Mirabile, Caldwell, Missouri, 64650 United States","-94.145308902519","39.617320553487"," Caldwell","",""
"Miriam Cemetery","Maryville"," Missouri"," United States","East Lieber Street Maryville, Nodaway, Missouri, 64468 United States","-94.86872200625","40.33612333133"," Nodaway","",""
"Missouri Veterans Cemetery - Fort Leonard Wood","Waynesville"," Missouri"," United States","25350 Highway H Waynesville, Pulaski, Missouri, 65583 United States 
                         
                    ","-92.206671878549","37.792110192211"," Pulaski","https://mvc.dps.mo.gov/cemeteries/ftleonardwood.php",""
"Missouri Veterans Cemetery - Jacksonville","Jacksonville"," Missouri"," United States","1479 County Road 1675 Jacksonville, Randolph, Missouri, 65239 United States 
                         
                    ","-92.483834344288","39.584496506056"," Randolph","https://mvc.dps.mo.gov/cemeteries/jacksonville.php",""
"Missouri Veterans Cemetery","Bloomfield"," Missouri"," United States","17357 Stars and Stripes Way Bloomfield, Stoddard, Missouri, 63841 United States","-89.935037858052","36.862768799112"," Stoddard","",""
"Missouri Veterans Cemetery - Springfield ","Springfield"," Missouri"," United States","5201 S. Southwood Road Springfield, Greene, Missouri, 65804 United States 
                         
                    ","-93.238879465601","37.118578374147"," Greene","https://mvc.dps.mo.gov/cemeteries/springfield.php",""
"Mission Ridge Cemetery ","Urbana"," Missouri"," United States","198 Mission Ridge Road Urbana, Dallas, Missouri United States","-93.155881","37.810115"," Dallas","",""
"Imhoff Cemetery","Low Point"," Illinois"," United States","County Road 825 E Low Point, Woodford, Illinois, 61545 United States","-89.384438","40.879169"," Woodford","",""
"Minner Cemetery","New Madrid"," Missouri"," United States","County Road 635 New Madrid, New Madrid, Missouri, 63869 United States","-89.55978605845","36.605032871478"," New Madrid","",""
"Minor Cemetery","Easton"," Missouri"," United States","State Route Z Easton, Buchanan, Missouri, 64443 United States","-94.682503","39.75333"," Buchanan","",""
"Mission Chapel Cemetery","Elkland"," Missouri"," United States","96 County Road 523 Elkland, Webster, Missouri, 65644 United States","-93.043945183443","37.485318845019"," Webster","",""
"Minoi-Sandiage Cemetery","Hannibal"," Missouri"," United States","5830-5898 County Road 439 Hannibal, Marion, Missouri, 63401 United States","-91.433609","39.73278"," Marion","",""
"Illinois Central Railroad Cemetery","Neoga"," Illinois"," United States","Railroad St Neoga, Cumberland, Illinois, 62447 United States","-88.436069603456","39.351609011146"," Cumberland","",""
"Igo Cemetery","Chrisman"," Illinois"," United States","2506 E Barataria Chrisman, Edgar, Illinois, 61924 United States","-87.592781","39.741112"," Edgar","",""
"Illinois Central Pioneer Cemetery","Neoga"," Illinois"," United States","447-451 550N Neoga, Cumberland, Illinois, 62447 United States","-88.387779","39.250561"," Cumberland","",""
"Miriam Cemetery","Bethany"," Missouri"," United States","841-929 Missouri W Bethany, Harrison, Missouri, 64424 United States","-94.039","40.2746"," Harrison","",""
"Missouri Veterans Cemetery - Higginsville","Higginsville"," Missouri"," United States","20109 Business Hwy 13 Higginsville, Lafayette, Missouri, 64037 United States 
                         
                    ","-93.73274222889","39.097029849707"," Lafayette","https://mvc.dps.mo.gov/cemeteries/higginsville.php",""
"Icabod Perry Cemetery","Mt Sterling"," Illinois"," United States","County Road 850 N Mt Sterling, Brown, Illinois, 62353 United States","-90.695","39.96611"," Brown","",""
"Ifner Cemetery","Pittsfield"," Illinois"," United States","Pittsfield, Pike, Illinois United States","-90.911392","39.627499"," Pike","",""
"Illini Cemetery","Warrensburg"," Illinois"," United States","5200-5298 Kenney Rd Warrensburg, Macon, Illinois, 62573 United States","-89.087582096958","39.909191983263"," Macon","",""
"Imhoff Cemetery","Danvers Danvers Township"," Illinois"," United States","21489 North 350 East Road Danvers Danvers Township, McLean, Illinois, 61732 United States","-89.20316287368","40.595039696845"," McLean","",""
"Hutton Cemetery","Greenup"," Illinois"," United States","1702 County Road 1050n Greenup, Cumberland, Illinois, 62428 United States","-88.159721","39.320831"," Cumberland","",""
"Hutton Cemetery","Nebo"," Illinois"," United States","County Highway 10 Nebo, Pike, Illinois, 62355 United States","-90.80278","39.443611"," Pike","",""
"Hutchison Cemetery","Thebes"," Illinois"," United States","Unnamed Rd Thebes, Alexander, Illinois, 62990 United States","-89.441391","37.24139"," Alexander","",""
"Hutsonville New Cemetery","Hutsonville"," Illinois"," United States","N Pleasant St Hutsonville, Crawford, Illinois, 62433 United States","-87.660561","39.117779"," Crawford","",""
"Hutchinson Cemetery","Colchester"," Illinois"," United States","6368-6498 County Road 19 Colchester, McDonough, Illinois, 62326 United States","-90.828515776433","40.375724432102"," McDonough","",""
"Hutson Cemetery","McLeansboro"," Illinois"," United States","County Road 1100 E McLeansboro, Hamilton, Illinois, 62859 United States","-88.50231655952","38.07048398329"," Hamilton","",""
"Huss Cemetery","Biggsville"," Illinois"," United States","Biggsville, Henderson, Illinois United States","-90.898218871539","40.820073224595"," Henderson","",""
"Hurricane Cemetery","Fillmore"," Illinois"," United States","2-198 Whitten Ln Fillmore, Montgomery, Illinois, 62032 United States","-89.267663415053","39.064144728467"," Montgomery","",""
"Husemann Cemetery","Okawville"," Illinois"," United States","Unnamed Rd Okawville, Washington, Illinois, 62271 United States","-89.573561333817","38.397003832453"," Washington","",""
"Illinois City Cemetery","Illinois City"," Illinois"," United States","120th Ave W Illinois City, Rock Island, Illinois, 61259 United States","-90.897217","41.40139"," Rock Island","",""
"Illinois Masonic Home Cemetery  . . (Masonic Home Cemetery)","Sullivan"," Illinois"," United States","Illinois Hwy 121  Sullivan, Moultrie, Illinois, 61951 United States","-88.558387188863","39.60000297123"," Moultrie","",""
"Hutson Old Cemetery","Hutsonville"," Illinois"," United States","High St Hutsonville, Crawford, Illinois, 62433 United States","-87.659439","39.111111"," Crawford","",""
"Memorial Park","Union"," Mississippi"," United States","Old Decatur Rd Union, Newton, Mississippi, 39365 United States","-89.110558","32.567219"," Newton","",""
"Memorial Cemetery","Centreville"," Mississippi"," United States","1546-1676 Perkins Rd Centreville, Amite, Mississippi, 39631 United States","-90.991943","31.021111"," Amite","",""
"Melton Cemetery","Durant"," Mississippi"," United States","1603 Eddisville Road Durant, Holmes, Mississippi, 39063 United States","-89.851112","33.11528"," Holmes","",""
"Melba Cemetery","Sumrall"," Mississippi"," United States","Broome Rd Sumrall, Jefferson Davis, Mississippi, 39482 United States","-89.646443410426","31.444799713854"," Jefferson Davis","",""
"Memorial Gardens Cemetery","McComb"," Mississippi"," United States","2041 U.S. 98 McComb, Pike, Mississippi, 39648 United States","-90.418212167882","31.222881801456"," Pike","",""
"Melton Cemetery","Lexington"," Mississippi"," United States","2267 Wash Bailey Road Lexington, Holmes, Mississippi, 39095 United States","-89.996941","33.227219"," Holmes","",""
"Medlock Cemetery","Falkner"," Mississippi"," United States","Hunt Rd Falkner, Benton, Mississippi, 38629 United States","-89.092242822083","34.912399494488"," Benton","",""
"Huss Cemetery","Urbana"," Illinois"," United States","1200-1248 County Road 1900 E Urbana, Champaign, Illinois, 61802 United States","-88.103889","40.060001"," Champaign","",""
"Meggs Cemetery","Coffeeville"," Mississippi"," United States","Aramount Rd Coffeeville, Yalobusha, Mississippi, 38922 United States","-89.527779","34.0075"," Yalobusha","",""
"Meggs Cemetery","Lexington"," Mississippi"," United States","Meggs Rd Lexington, Holmes, Mississippi, 39095 United States","-90.128326","33.00972"," Holmes","",""
"Megee Cemetery","Durant"," Mississippi"," United States","Stokes Cemetary Rd Durant, Holmes, Mississippi, 39063 United States","-89.935829","33.174999"," Holmes","",""
"Meadow Creek Cemetery","Booneville"," Mississippi"," United States","243-277 County Road 5131 Booneville, Prentiss, Mississippi, 38829 United States","-88.55056272389","34.576392785514"," Prentiss","",""
"Memorial Park Cemetery","Laurel"," Mississippi"," United States","100-174 NE Rd Laurel, Jones, Mississippi, 39443 United States","-89.05056","31.696671"," Jones","",""
"Medford Cemetery","Ripley"," Mississippi"," United States","9614-10452 County Road 500 Ripley, Tippah, Mississippi, 38663 United States","-88.806389","34.786388"," Tippah","",""
"Meadville Cemetery","Meadville"," Mississippi"," United States","Main St Meadville, Franklin, Mississippi, 39653 United States","-90.898544927065","31.473157015125"," Franklin","",""
"Memorial Gardens Cemetery","Picayune"," Mississippi"," United States","2618 Highway 43 Picayune, Pearl River, Mississippi, 39466 United States","-89.630402130746","30.515337929246"," Pearl River","",""
"McWorthy Cemetery","Mt Olive"," Mississippi"," United States","Mt Olive, Covington, Mississippi, 39119 United States","-89.824997","31.73278"," Covington","",""
"McWhorter Cemetery","Blue Springs"," Mississippi"," United States","1885-1939 County Road 171 Blue Springs, Union, Mississippi, 38828 United States","-88.796232090436","34.495882486929"," Union","",""
"McSwine Cemetery","Grenada"," Mississippi"," United States","McSwine Rd Grenada, Grenada, Mississippi, 38901 United States","-89.904186306888","33.825466169908"," Grenada","",""
"McWilliams Cemetery","Rienzi"," Mississippi"," United States","County Road 445 Rienzi, Alcorn, Mississippi, 38865 United States","-88.492783","34.772221"," Alcorn","",""
"Otterbein Cemetery","Heth"," Indiana"," United States","12000-12098 Otterbein Road Southwest Heth, Harrison, Indiana, 47135 United States","-86.151741964205","38.02332538921"," Harrison","",""
"Otter Village Cemetery","Holton"," Indiana"," United States","5083-5139 W County Road 325 N Holton, Ripley, Indiana, 47023 United States","-85.349442","39.122219"," Ripley","",""
"Memorial Gardens Cemetery","Moss Point"," Mississippi"," United States","Lucedale Rd Moss Point, Jackson, Mississippi, 39562 United States","-88.531895160186","30.526982852258"," Jackson","",""
"Overleese Cemetery","Milroy"," Indiana"," United States","9179-9379 Indiana 3 Milroy, Rush, Indiana, 46156 United States","-85.479701787717","39.476807900857"," Rush","",""
"Otter Creek Cemetery","Butlerville"," Indiana"," United States","5885-5951 N County Road 750 E Butlerville, Jennings, Indiana, 47223 United States","-85.472708077583","39.072316172612"," Jennings","",""
"Memorial Gardens of Columbus","Columbus"," Mississippi"," United States","1727-1763 Mississippi 182 Columbus, Lowndes, Mississippi, 39701 United States","-88.491718449033","33.479624742699"," Lowndes","",""
"Osolo Township Cemetery","Osolo Township"," Indiana"," United States","25435 County Road 6 West Osolo Township, Elkhart, Indiana, 46514 United States","-85.956519","41.72466"," Elkhart","",""
"Osborne Cemetery","West Lafayette"," Indiana"," United States","600 S & 500 E County Road 450 West Lafayette, Jasper, Indiana, 47906 United States","-86.955126599361","40.9234427778"," Jasper","",""
"Orr Cemetery","Albany"," Indiana"," United States","11206-11412 E County Road 250 N Albany, Delaware, Indiana, 47320 United States","-85.254997","40.227219"," Delaware","",""
"Orman Cemetery","Bowling Green Washington Township"," Indiana"," United States","4141 East County Road 300 South Bowling Green Washington Township, Clay, Indiana, 47833 United States","-87.02858","39.34606"," Clay","",""
"Orchard Cemetery","Carbon"," Indiana"," United States","1601-1859 Fence Line Rd Carbon, Parke, Indiana, 47837 United States","-87.133614","39.604721"," Parke","",""
"Orrville Cemetery","Decker"," Indiana"," United States","County Road 1175 W Decker, Knox, Indiana, 47524 United States","-87.680424301031","38.468457189343"," Knox","",""
"Orndorff Cemetery","Oaktown"," Indiana"," United States","4699 East Gauger Road Oaktown, Knox, Indiana, 47561 United States","-87.45694","38.88139"," Knox","",""
"Orlea Cemetery","Rockville"," Indiana"," United States","Narrow Lane Rockville, Parke, Indiana, 47872 United States","-87.304718","39.680828"," Parke","",""
"Orange Cemetery","Wawaka"," Indiana"," United States","8167-8275 N 175 E Wawaka, Noble, Indiana, 46794 United States","-85.39222","41.470829"," Noble","",""
"Orchard Hill Cemetery","Leavenworth"," Indiana"," United States","1804 E Buzzards Roost Rd Leavenworth, Crawford, Indiana, 47137 United States","-86.426263253976","38.129862470717"," Crawford","",""
"Orchard Grove Cemetery","Lowell"," Indiana"," United States","18000-19130 Harrison St Lowell, Lake, Indiana, 46356 United States","-87.344437","41.286671"," Lake","",""
"Ormes Cemetery","Rushville"," Indiana"," United States","3500-3998 W 310 S Rushville, Rush, Indiana, 46173 United States","-85.514313253965","39.563249289112"," Rush","",""
"Orange-North Cemetery","Glenwood"," Indiana"," United States","3044-3098 County Road 800 E Glenwood, Rush, Indiana, 46133 United States","-85.298607","39.598061"," Rush","",""
"Otwell Cemetery","West Harrison"," Indiana"," United States","2052 Carolina Trace Rd West Harrison, Franklin, Indiana, 47060 United States","-84.827499","39.323608"," Franklin","",""
"Ontario Cemetery","Howe"," Indiana"," United States","2001-2149 E 400 N Howe, LaGrange, Indiana, 46746 United States","-85.389468143494","41.70024308282"," LaGrange","",""
"Otsego Center Cemetery","Hamilton"," Indiana"," United States","5184-5206 Indiana 1 Hamilton, Steuben, Indiana, 46742 United States","-84.908590492052","41.569034483476"," Steuben","",""
"North Washington Prairie Cemetery","Decorah"," Iowa"," United States","1652-1654 Valdres Rd Decorah, Winneshiek, Iowa, 52101 United States","-91.72361","43.256111"," Winneshiek","",""
"North Sixth Street Cemetery","Burlington"," Iowa"," United States","1206 N 6th St Burlington, Des Moines, Iowa, 52601 United States","-91.102686367093","40.819938677269"," Des Moines","",""
"North Spruce Creek Church Cemetery","Bellevue"," Iowa"," United States","35000-35636 308th St Bellevue, Jackson, Iowa, 52031 United States","-90.487258175855","42.291673375943"," Jackson","",""
"Northfield Cemetery","Mediapolis"," Iowa"," United States","10000-10710 260th St Mediapolis, Des Moines, Iowa, 52637 United States","-91.124478854355","41.059347664663"," Des Moines","",""
"Osborn Cemetery","Lagrange"," Indiana"," United States","1750-1818 W 300 S Lagrange, LaGrange, Indiana, 46761 United States","-85.458226163982","41.597786283195"," LaGrange","",""
"North Upton Cemetery","Cantril"," Iowa"," United States","Hickory Avenue Cantril, Van Buren, Iowa, 52542 United States","-92.034172","40.60722"," Van Buren","",""
"Norwalk Cemetery","Norwalk"," Iowa"," United States","North Avenue Norwalk, Warren, Iowa, 50125 United States","-93.668611768048","41.438644551195"," Warren","",""
"North Oak Grove Cemetery","Stuart"," Iowa"," United States","N 10th St Stuart, Guthrie, Iowa, 50250 United States","-94.311111","41.515282"," Guthrie","",""
"North Wayne Cemetery","Winfield"," Iowa"," United States","1901-1929 115th St Winfield, Henry, Iowa, 52659 United States","-91.542276944674","41.142437363138"," Henry","",""
"North Prairie Cemetery","Leland"," Iowa"," United States","45001-45999 170th Ave Leland, Winnebago, Iowa, 50453 United States","-93.635834","43.422501"," Winnebago","",""
"North Page Cemetery","Villisca"," Iowa"," United States","2752-2794 110 St Villisca, Page, Iowa, 50864 United States","-95.051109","40.88583"," Page","",""
"North Mineral Cemetery","Wyoming"," Iowa"," United States","13243 Dove Road Wyoming, Jones, Iowa, 52362 United States","-90.976438547464","42.128151190229"," Jones","",""
"Northlawn Memorial Cemetery","Spencer"," Iowa"," United States","8 E 23rd St Spencer, Clay, Iowa, 51301 United States","-95.146230302897","43.160168438421"," Clay","",""
"Norwalk Cemetery","Norwalk"," Iowa"," United States","North Ave. Norwalk, Warren, Iowa, 50211 United States","-93.673771","41.475707"," Warren","",""
"North River Cemetery","Norwalk"," Iowa"," United States","505-599 105th Ave Norwalk, Warren, Iowa, 50211 United States","-93.606941","41.447498"," Warren","",""
"North Sibley Cemetery","Sibley"," Iowa"," United States","1316-1334 Oriole Ave Sibley, Osceola, Iowa, 51249 United States","-95.741173543647","43.458935726294"," Osceola","",""
"North Prairie Cemetery","West Liberty"," Iowa"," United States","N Evans Ave West Liberty, Muscatine, Iowa, 52776 United States","-91.26944","41.592499"," Muscatine","",""
"McIntosh Cemetery","Nortonville"," Kentucky"," United States","506-508 McIntosh Chapel Road Nortonville, Hopkins, Kentucky, 42442 United States","-87.461612210772","37.143759239167"," Hopkins","",""
"McIntire Cemetery","Milton"," Kentucky"," United States","Milton, Trimble, Kentucky United States","-85.410561","38.70694"," Trimble","",""
"McIntire Cemetery","Cadiz"," Kentucky"," United States","200-298 E Ross School Rd Cadiz, Trigg, Kentucky, 42211 United States","-87.943905797789","36.760750864773"," Trigg","",""
"McIntire Cemetery","West Point"," Kentucky"," United States","Railway Trestle Rd West Point, Hardin, Kentucky, 40177 United States","-85.979172","37.961941"," Hardin","",""
"McInteer Cemetery & Slave Cemetery","Knob Lick"," Kentucky"," United States","Wayne Poynter Road Knob Lick, Metcalfe, Kentucky, 42154 United States","-85.684229","37.056247"," Metcalfe","",""
"McIntosh Cemeteries","Clayhole"," Kentucky"," United States","7203-7205 Kentucky 476 Clayhole, Breathitt, Kentucky, 41317 United States","-83.279772937451","37.470161162473"," Breathitt","",""
"North Shell Rock Cemetery","Northwood"," Iowa"," United States","4789 Mallard Ave Northwood, Worth, Iowa, 50459 United States","-93.260265832537","43.456667465831"," Worth","",""
"North Madison Pioneers Cemetery","Center Junction"," Iowa"," United States","12197-12265 95th Ave Center Junction, Jones, Iowa, 52212 United States","-91.06369037917","42.109574459697"," Jones","",""
"North McDonald Cemetery","Van Meter"," Iowa"," United States","Prairieview Ave Van Meter, Madison, Iowa, 50261 United States","-93.972799457664","41.422988169589"," Madison","",""
"McIntosh Cemetery","Booneville"," Kentucky"," United States","McIntosh Cemetery Rd Booneville, Owsley, Kentucky, 41314 United States","-83.709349","37.468618"," Owsley","",""
"McGuire Cemetery","Greenup"," Kentucky"," United States","Mc Guire Cemetery Rd Greenup, Greenup, Kentucky, 41144 United States","-82.859708302475","38.521298494125"," Greenup","",""
"McIntier Cemetery","Paris"," Kentucky"," United States","201-287 Youngs Mill Road Paris, Bourbon, Kentucky, 40361 United States","-84.094768","38.255893"," Bourbon","",""
"North Liberty Cemetery","West Branch"," Iowa"," United States","709-715 280th St West Branch, Cedar, Iowa, 52358 United States","-91.229172","41.68528"," Cedar","",""
"McGrew Church Cemetery","Leitchfield"," Kentucky"," United States","McGrew Church Road Leitchfield, Grayson, Kentucky, 42754 United States","-86.254863412539","37.362155102745"," Grayson","",""
"McGlone Cemetery","Olive Hill"," Kentucky"," United States","116 McGlone Lane Olive Hill, Carter, Kentucky, 41164 United States","-83.211740473974","38.411724139266"," Carter","",""
"McGinnis Cemetery","Columbia"," Kentucky"," United States","763-1205 State Highway 1952 Columbia, Adair, Kentucky, 42728 United States","-85.337968855088","36.982773810274"," Adair","",""
"McGregor Cemetery","Princeton"," Kentucky"," United States","189-199 Roberts Rd Princeton, Caldwell, Kentucky, 42445 United States","-87.806237752996","37.22505015937"," Caldwell","",""
"McGinnis Cemetery","Garrison"," Kentucky"," United States","McDowell Creek Rd Garrison, Lewis, Kentucky, 41141 United States","-83.160147869421","38.529823537286"," Lewis","",""
"McGinnis Cemetery","Greenup"," Kentucky"," United States","Kentucky 2 Greenup, Greenup, Kentucky, 41144 United States","-82.955339435588","38.504618249114"," Greenup","",""
"McGrady Creek Church Cemetery","Yeaman"," Kentucky"," United States","Yeaman Olaton Road Yeaman, Grayson, Kentucky, 42721 United States","-86.630097621249","37.517811784483"," Grayson","",""
"Wallace Cemetery","Franklinton"," Louisiana"," United States","17400-17998 Sunlight Rd Franklinton, Washington, Louisiana, 70438 United States","-90.226536222785","30.779089976558"," Washington","",""
"McHargue Cemetery","Lily"," Kentucky"," United States","McClure Bridge Rd Lily, Laurel, Kentucky, 40740 United States","-84.013464044428","37.003427234322"," Laurel","",""
"Wallace Cemetery","Bogalusa"," Louisiana"," United States","15385-15503 Wallace Cemetery Rd Bogalusa, Washington, Louisiana, 70427 United States","-89.909996602271","30.74961237912"," Washington","",""
"Walker Community African American Cemetery","Gibsland"," Louisiana"," United States","Iron Bridge Road Gibsland, Bienville Parish, Louisiana United States","-93.057724507397","32.57372211405"," Bienville Parish","",""
"Wall Cemetery","Prairieville"," Louisiana"," United States","45298 Walls Cemetery Rd Prairieville, Ascension, Louisiana, 70769 United States","-90.845361326901","30.308226721"," Ascension","",""
"McGlasson Cemetery","Center"," Kentucky"," United States","169-179 Don Church Rd Center, Green, Kentucky, 42214 United States","-85.660561","37.15667"," Green","",""
"Walker Cemetery","Minden"," Louisiana"," United States","Unnamed Rd Minden, Webster, Louisiana, 71055 United States","-93.366112","32.55389"," Webster","",""
"McGuinnis Cemetery","Dry Ridge"," Kentucky"," United States","Meeks Rd Dry Ridge, Grant, Kentucky, 41035 United States","-84.611107","38.67083"," Grant","",""
"McGuire Fairview Cemetery","Hitchins"," Kentucky"," United States","Cr-1142K Hitchins, Carter, Kentucky, 41143 United States","-82.918004251011","38.285286795064"," Carter","",""
"Walker Cemetery","Minden"," Louisiana"," United States","Minden, Webster, Louisiana, 71055 United States","-93.336937","32.68222"," Webster","",""
"Walker Cemetery","Sun"," Louisiana"," United States","29501-29649 Stein Rd Sun, St Tammany, Louisiana, 70427 United States","-89.903152633881","30.655793158475"," St Tammany","",""
"McGuire Cemetery","Jeffersonville"," Kentucky"," United States","2479-2513 State Highway 1050 Jeffersonville, Montgomery, Kentucky, 40337 United States","-83.808722","37.94833"," Montgomery","",""
"Walker Cemetery","St Francisville"," Louisiana"," United States","Unnamed Rd St Francisville, West Feliciana, Louisiana, 70775 United States","-91.312218","30.87944"," West Feliciana","",""
"Walker Cemetery","Gibsland"," Louisiana"," United States","200-206 Pine Grove Church Rd Gibsland, Bienville, Louisiana, 71028 United States","-93.12977822037","32.565838445029"," Bienville","",""
"Walker Cemetery","Kentwood"," Louisiana"," United States","E Walker Rd Kentwood, Tangipahoa, Louisiana, 70444 United States","-90.340277933197","30.82899196941"," Tangipahoa","",""
"Walker Hill Cemetery","Blanchard"," Louisiana"," United States","4775-4799 Fairway Hills Ave Blanchard, Caddo, Louisiana, 71137 United States","-93.874718","32.595001"," Caddo","",""
"Walker Baptist Cemetery","Walker"," Louisiana"," United States","13165-13175 Cambre Ln Walker, Livingston, Louisiana, 70785 United States","-90.861276744798","30.480901184957"," Livingston","",""
"Walker Cemetery","Dubberly"," Louisiana"," United States","Dubberly, Webster, Louisiana, 71024 United States","-93.190153971785","32.476342388844"," Webster","",""
"Wakefield Memorial Cemetery","Cameron"," Louisiana"," United States","462-606 Marshall St Cameron, Cameron, Louisiana, 70631 United States","-93.315530654348","29.795666859754"," Cameron","",""
"Wainwright Cemetery","Amite"," Louisiana"," United States","61101-61161 Bellott Rd Amite, Tangipahoa, Louisiana, 70422 United States","-90.354500942449","30.740804224801"," Tangipahoa","",""
"Wales Cemetery","Greensburg"," Louisiana"," United States","Wales Cemetary Rd Greensburg, St Helena, Louisiana, 70441 United States","-90.76615110953","30.923506424459"," St Helena","",""
"Wagner Cemetery","Albany"," Louisiana"," United States","Unnamed Rd Albany, Livingston, Louisiana, 70711 United States","-90.581673","30.53056"," Livingston","",""
"Waggaman Cemetery","Avondale"," Louisiana"," United States","101-217 Avondale Garden Rd Avondale, Jefferson, Louisiana, 70094 United States","-90.207567394098","29.919115975456"," Jefferson","",""
"Miner Cemetery","Salem"," Missouri"," United States","Unnamed Rd Salem, Dent, Missouri, 65560 United States","-91.485283","37.561111"," Dent","",""
"Wager Cemetery","Madisonville"," Louisiana"," United States","199 Wager Cemetary Rd Madisonville, St Tammany, Louisiana, 70447 United States","-90.205815393747","30.4484500667"," St Tammany","",""
