name,city,state,country,address,Longitude,Latitude,Municipalities,Website
Yaamba Cemetery,Yaamba, Queensland, Australia,"1 Iris St Yaamba, Queensland, 4702 Australia",150.367498,-23.133311,,
Wyandra Cemetery,Wyandra, Queensland, Australia,"2 Moody St Wyandra, Queensland, 4489 Australia",145.974159,-27.253515,,
Frogmore Cemetery,Frogmore, New South Wales, Australia,"LOT 2 Bally Hooley Rd Frogmore, New South Wales, 2586 Australia",148.84909,-34.271964,,
Frogmore - Saint John the Baptist Catholic Church/Graveyard,Frogmore, New South Wales, Australia,"993 Frogmore Rd Frogmore, New South Wales, 2586 Australia",148.83963,-34.27137,,
Georges Plains - Saint John Anglican Church Graveyard ,Georges Plains, New South Wales, Australia,"Vale Rd Georges Plains, New South Wales, 2795 Australia",149.52365,-33.51364,,
Woongarra Crematorium,Townsville, Queensland, Australia,"A1 Townsville, Queensland, 4811 Australia",146.875055,-19.358394,,
Woodlands Cemetery,Marburg, Queensland, Australia,"174 Seminary Rd Marburg, Queensland, 4346 Australia",152.603773,-27.553938,,
Woombye Cemetery,Palmwoods, Queensland, Australia,"118-150 Woombye-Palmwoods Rd Palmwoods, Queensland, 4555 Australia",152.973583441803,-26.6808837967357,,
Fords Bridge Cemetery,Fords Bridge, New South Wales, Australia,"Snake Gully Road Fords Bridge, Bourke Shire Council, New South Wales, 2840 Australia",145.418129,-29.759869, Bourke Shire Council,
Garah Cemetery,Garah, New South Wales, Australia,"LOT 10 Talmoi Rd Garah, New South Wales, 2405 Australia",149.601645,-29.077138,,
Fitzgeralds Valley graves,Newbridge, New South Wales, Australia,"W Wimbeldon Rd Newbridge, New South Wales, 2795 Australia",149.397713,-33.552041,,
First Fleet Memorial Gardens,Wallabadah, New South Wales, Australia,"LOT 9 Coach St Wallabadah, New South Wales, 2343 Australia",150.831642,-31.537139,,
Frost's Rest,Cooranbong, New South Wales, Australia,"154 Mannings Road Cooranbong, New South Wales, 2265 Australia",151.4422,-33.099891,,
Galong (Monastery) Cemetery,Galong, New South Wales, Australia,"LOT 214 Galong Rd Galong, New South Wales, 2585 Australia",148.560176,-34.567353,,
Ganmain Cemetery,Ganmain, New South Wales, Australia,"7 Grave St Ganmain, New South Wales, 2702 Australia",147.046873,-34.803426,,
Frenchs Forest Bushland Cemetery,Sydney, New South Wales, Australia,"1 Hakea Ave Sydney, Northern Beaches, New South Wales, 2086 Australia",151.20142,-33.73988, Northern Beaches,
Saint Mary Pool Lone Graves,Murnpeowie, South Australia, Australia,"Strzelecki Track Murnpeowie, Pastoral Unincorporated Area, South Australia, 5731 Australia",139.41482,-29.57847, Pastoral Unincorporated Area,
Forster Cemetery,Forster, New South Wales, Australia,"19 Strand Street Forster, New South Wales, 2428 Australia",152.5219560438,-32.187696809665,,
Forty Bends Cemetery,South Bowenfels, New South Wales, Australia,"LOT 1 Great Western Hwy South Bowenfels, New South Wales, 2790 Australia",150.143,-33.52,,
Forster (Angel Close) Cemetery,Forster, New South Wales, Australia,"19 Angel Close Forster, New South Wales, 2428 Australia",152.5168125822,-32.19905890976,,
Finley Cemetery,Finley, New South Wales, Australia,"93 Tongs St Finley, New South Wales, 2713 Australia",145.564127,-35.646904,,
Frederickton Cemetery,Frederickton, New South Wales, Australia,"1-43 Yarrabandinni Rd Frederickton, New South Wales, 2440 Australia",152.877674,-31.033501,,
Fingal Head Cemetery,Tweed Heads, New South Wales, Australia,"1 Letitia Road Tweed Heads, New South Wales, 2487 Australia",153.563937931213,-28.1949311441196,,
Saint John Cemetery,St Johns, South Australia, Australia,"717 St Johns Rd enter from Reformatory Rd St Johns, Light, South Australia, 5373 Australia",138.95139,-34.37033, Light,
Forbes Cemetery,Forbes, New South Wales, Australia,"LOT 7030 Edward St Forbes, New South Wales, 2871 Australia",147.994884,-33.37146,,
"Saint Paul (Anglican) Church, Adelaide",Adelaide, South Australia, Australia,"Flinders Street Adelaide, Adelaide City Council, South Australia, 5000 Australia",138.60621,-34.92661, Adelaide City Council,
Rudall Cemetery,Rudall, South Australia, Australia,"Lot 87 Govt. Rd off Birdseye Hwy Rudall, Jervois, South Australia, 5642 Australia",136.260316,-33.690457, Jervois,
Saint Kitts (Saint Peter) Lutheran Cemetery,St Kitts, South Australia, Australia,"630 St Kitts West Rd cnr Tablelands Rd St Kitts, Light, South Australia, 5356 Australia",139.08109,-34.35627, Light,
Roxby Downs Cemetery,Roxby Downs, South Australia, Australia,"Opal Road Roxby Downs, Municipal Council of Roxby Downs, South Australia, 5725 Australia",136.886768,-30.551774, Municipal Council of Roxby Downs,
Saint Kitts (Saint Paul) Lutheran Churchyard,Eudunda, South Australia, Australia,"Tableland Road Eudunda, Mid Murray Council, South Australia, 5356 Australia",139.08439,-34.35253, Mid Murray Council,
Roseworthy Cemetery,Wasleys, South Australia, Australia,"Callaghan Rd Wasleys, Gawler, South Australia, 5400 Australia",138.676283,-34.528473, Gawler,
Saint Mary (Saint Mary-on-the-Sturt) Anglican Churchyard,Adelaide, South Australia, Australia,"1163-1167 South Road Adelaide, Adelaide, South Australia, 5042 Australia",138.57564,-34.99628, Adelaide,
Rostrevor Saint Francis Xavier Chapel Crypt,Adelaide, South Australia, Australia,"36 Chapel Way Adelaide, Adelaide, South Australia, 5073 Australia",138.69007,-34.89946, Adelaide,
Saddleworth Old/Church of England Cemetery,Saddleworth, South Australia, Australia,"11 Whip St Saddleworth, Light, South Australia, 5413 Australia",138.78541,-34.08414, Light,
Saint Columba Anglican Church and Memorial Garden Hawthorn,Adelaide, South Australia, Australia,"99 Cross Road Adelaide, Adelaide, South Australia, 5062 Australia",138.60369938869,-34.965887390992, Adelaide,
"Saint George Anglican Churchyard, Magill ",Adelaide, South Australia, Australia,"1b Church Street Adelaide, Adelaide, South Australia, 5072 Australia",138.67595,-34.907, Adelaide,
"Saint John (Anglican) Churchyard, Adelaide",Adelaide, South Australia, Australia,"Halifax Street Adelaide, Adelaide City Council, South Australia, 5000 Australia",138.61603,-34.93244, Adelaide City Council,
Saint John Catholic Cemetery,St Johns, South Australia, Australia,"717 St Johns Rd St Johns, Light, South Australia, 5373 Australia",138.95418,-34.37158, Light,
Rowland Flat (Holy Trinity Lutheran) Cemetery,Rowland Flat, South Australia, Australia,"1820 Barossa Valley Way Rowland Flat, Light, South Australia, 5351 Australia",138.92739,-34.58776, Light,
Saddleworth Cemetery,Saddleworth, South Australia, Australia,"965 Saddleworth Rd Saddleworth, Light, South Australia, 5413 Australia 
                         
                    ",138.770847,-34.070583, Light,https://www.claregilbertvalleys.sa.gov.au/page.aspx?cemeteryId=8638&searchString=&u=132&t=cemeterySearch&cemeterySearchMode=results
Saddleworth (Saint Stephen) Catholic Churchyard,Saddleworth, South Australia, Australia,"1863 Barrier Hwy (Lot 457) Saddleworth, Light, South Australia, 5413 Australia",138.78525,-34.07403, Light,
Rosenthal Pioneer / Old Dohse Lutheran Cemetery,Rosedale, South Australia, Australia,"327 Rosedale Road (Lot 20) Rosedale, Adelaide, South Australia, 5350 Australia 
                         
                    ",138.839754,-34.569659, Adelaide,http://www.ozgenonline.com/~forever_remembered/rosenthal_pioneer.htm
Underbool Cemetery,Underbool, Victoria, Australia,"31 Malkin Ave Underbool, Victoria, 3509 Australia",141.809592,-35.179905,,
Vaughan Cemetery,Vaughan, Victoria, Australia,"416 Vaughan-Springs Road Vaughan, Victoria, 3451 Australia",144.20573,-37.14824,,
Upper Yarra Cemetery,Yarra Junction, Victoria, Australia,"2705 Warburton Highway Yarra Junction, Victoria, 3797 Australia 
                         
                    ",145.637647,-37.779012,,https://www.uypct.org.au/
Uniting Church Garden Graveyard,Melbourne, Victoria, Australia,"235 Derrimut Road Melbourne, Wyndham City, Victoria, 3029 Australia",144.683286,-37.873099, Wyndham City,
Ultima Cemetery,Ultima, Victoria, Australia,"Ultima-Culgoa Rd Ultima, Victoria, 3544 Australia",143.262354,-35.482127,,
Tylden Cemetery,Tylden, Victoria, Australia,"74 Cemetery Rd Tylden, Victoria, 3444 Australia",144.419782,-37.323118,,
Tyaak Cemetery,Tyaak, Victoria, Australia,"LOT 145W Strath Creek Road Tyaak, Victoria, 3658 Australia",145.13743352744,-37.218285142404,,
Tyabb Cemetery,Melbourne, Victoria, Australia,"1 Cemetery Road Melbourne, Victoria, 3915 Australia",145.2129,-38.30269,,
Truganina Cemetery,Truganina, Victoria, Australia,"121 Woods Road Truganina, Victoria, 3029 Australia 
                         
                    ",144.71997023544,-37.82557678047,,https://www.gmct.com.au/our-locations/truganina-cemetery
Tungamah (Tharanbegga) Cemetery,Tungamah, Victoria, Australia,"254 Mays Hill Rd Tungamah, Tharanbegga, Victoria, 3728 Australia",145.89474,-36.13276, Tharanbegga,
Tutye Cemetery,Tutye, Victoria, Australia,"Tyalla Rd Tutye, Victoria, 3490 Australia",141.474981,-35.212947,,
Tottington Cemetery,Paradise, Victoria, Australia,"5018 C241 Paradise, Northern Grampians Shire, Victoria Australia",143.1218427,-36.7866728, Northern Grampians Shire,
Trentham Cemetery,Trentham, Victoria, Australia,"Cosmo Road Trentham, Shire of Moorabool, Victoria, 3458 Australia",144.31917,-37.39623, Shire of Moorabool,
Upper Regions (Kornheim) (Wail) Cemetery,Dimboola, Victoria, Australia,"Petschels Rd Dimboola, Victoria, 3414 Australia",142.117503,-36.486355,,
Trafalgar Cemetery,Trafalgar East, Victoria, Australia,"8 Cemetery Rd Trafalgar East, Victoria, 3824 Australia",146.19625,-38.20005,,
Toora Cemetery,Toora, Victoria, Australia,"337 Lower Toora Rd Toora, South Gippsland Shire, Victoria, 3962 Australia 
                         
                    ",146.285024,-38.670608, South Gippsland Shire,http://www.ozgenonline.com/~jodie_duckworth/toora/index.htm
Towaninny Cemetery,Towaninny South, Victoria, Australia,"2656 Charlton-Swan Hill Road Towaninny South, Victoria, 3527 Australia",143.3588,-35.91373,,
Wolfram South Cemetery,Dimbulah, Queensland, Australia,"LOT 9 Wolfram Rd Dimbulah, Queensland, 4872 Australia",144.955458,-17.094752,,
Woodbury Cemetery,Bungundarra, Queensland, Australia,"146 Stones Rd Bungundarra, Queensland, 4703 Australia",150.681154,-23.031341,,
Toongabbie Cemetery,Toongabbie, Victoria, Australia,"LOT 104B Traralgon-Maffra Road Toongabbie, Victoria, 3856 Australia",146.6183,-38.06505,,
Woodford Pioneer Cemetery,Woodford, Queensland, Australia,"1 Wouwa St Woodford, Queensland, 4514 Australia",152.762906746033,-26.9417363420015,,
Tower Hill Cemetery ,Illowa, Victoria, Australia,"21 Fitzgibbons Ln Illowa, Victoria, 3282 Australia",142.38813,-38.3261,,
Wivenhoe Pocket General Cemetery,Wivenhoe Pocket, Queensland, Australia,"39 Deletraz Rd Wivenhoe Pocket, Queensland, 4306 Australia",152.613769,-27.42404,,
Winchester Station lone graves,Albion, Queensland, Australia,"Unnamed Road Albion, Richmond Shire, Queensland, 4822 Australia",142.62245,-21.184929, Richmond Shire,
Wolfram East Cemetery,Dimbulah, Queensland, Australia,"Main St Dimbulah, Queensland, 4872 Australia",144.965865,-17.077389,,
Western Creek Homestead Cemetery,Western Creek, Queensland, Australia,"LOT 1 Western Creek Rd Western Creek, Queensland, 4357 Australia",151.093346,-27.828701,,
Woodford Cemetery,Woodford, Queensland, Australia,"Cemetery Rd Woodford, Australia, Queensland, 4514 Australia",152.786929611114,-26.9461318459077, Australia,
Wonglepong Cemetery,Wonglepong, Queensland, Australia,"LOT 1 Beaudesert-Nerang Rd Wonglepong, Queensland, 4275 Australia",153.164351,-27.977098,,
Weipa Cemetery,Weipa, Queensland, Australia,"6-8 Tonkin Road Weipa, Weipa Town, Queensland, 4873 Australia",141.89035662698,-12.623086121975, Weipa Town,
Wondai Cemetery,Wondai, Queensland, Australia,"LOT 85 Bunya Hwy Wondai, Queensland, 4606 Australia",151.867193,-26.289469,,
Fernmount ,Bellingen, New South Wales, Australia,"6A Mary Street Bellingen, Bellingen Shire Council, New South Wales Australia",152.899933,-30.453669, Bellingen Shire Council,
Fifield Cemetery,Fifield, New South Wales, Australia,"Wilga Ridge Road Fifield, Lachlan Shire Council, New South Wales, 2875 Australia",147.443401,-32.807314, Lachlan Shire Council,
Fennell Bay Cemetery,Fennell Bay, New South Wales, Australia,"LOT 1 Old Main Road Fennell Bay, New South Wales, 2283 Australia",151.59943,-32.98015,,
Welch Pioneer Park,Wongawallan, Queensland, Australia,"Lot 881 Tamborine Oxenford Road Wongawallan, Gold Coast City, Queensland, 4210 Australia",153.24680298471,-27.897003900126, Gold Coast City,
Windorah Cemetery,Windorah, Queensland, Australia,"LOT 2 Cecil St Windorah, Queensland, 4481 Australia",142.653271,-25.415886,,
Witta Cemetery,Witta, Queensland, Australia,"360 Cooke Rd Witta, Queensland, 4552 Australia",152.827222,-26.706111,,
Fenwicke Family graves,Walcha, New South Wales, Australia,"LOT 2 Moona Plains Rd Walcha, New South Wales, 2354 Australia",151.676218,-30.984502,,
Westwood Cemetery,Westwood, Queensland, Australia,"96 Westwood Cemetery Rd Westwood, Queensland, 4702 Australia",150.156883,-23.603966,,
Farnham Cemetery,Farnham, New South Wales, Australia,"143 Farnham Rd Farnham, New South Wales, 2820 Australia",149.087,-32.8445,,
Westbrook Cemetery,Westbrook, Queensland, Australia,"LOT 210 F G G Coupers Rd Westbrook, Queensland, 4350 Australia",151.800286,-27.60244,,
Winton Cemetery,Winton, Queensland, Australia,"LOT 1 Sesbania St Winton, Queensland, 4735 Australia",143.033131,-22.38369,,
Evans Head Cemetery,Evans Head, New South Wales, Australia,"Cnr Cemetery Rd & Woodburn St Evans Head, New South Wales, 2473 Australia",153.422184,-29.113887,,
Fairfield Baptist Church Graveyard,Sydney, New South Wales, Australia,"98-100 Smart Street Sydney, New South Wales, 2165 Australia",150.951937,-33.864826,,
West End Cemetery - Townsville,Townsville, Queensland, Australia,"33 Church Street Townsville, Queensland, 4810 Australia",146.801126,-19.26569,,
Evans Head,Evans Head, New South Wales, Australia,"Oak Lane Evans Head, Richmond Valley Council, New South Wales, 2473 Australia",153.4337087061,-29.118037829637, Richmond Valley Council,
Evans Head,Evans Head, New South Wales, Australia,"Cemetery Road Evans Head, Richmond Valley Council, New South Wales, 2473 Australia",153.42176210683,-29.109788381011, Richmond Valley Council,
Fairlight Cemetery,Glenquarry, New South Wales, Australia,"179 Tourist Rd Glenquarry, New South Wales, 2576 Australia",150.510368,-34.521224,,
Faulconbridge Cemetery,Sydney, New South Wales, Australia,"25 Sir Henrys Parade Sydney, New South Wales, 2776 Australia",150.535279,-33.697342,,
Eurobodalla Cemetery,Eurobodalla, New South Wales, Australia,"758 Eurobodalla Rd Eurobodalla, New South Wales, 2545 Australia",149.991166,-36.130701,,
Euratha Cemetery,Weethalle, New South Wales, Australia,"LOT 32 Lees Ln Weethalle, New South Wales, 2669 Australia",146.528649,-33.896958,,
Eungai Creek Cemetery,Eungai Creek, New South Wales, Australia,"132 Main St Eungai Creek, New South Wales, 2441 Australia",152.875013,-30.825196,,
Euroka Cemetery,Euroka, New South Wales, Australia,"249 Euroka Rd Euroka, New South Wales, 2440 Australia",152.803696,-31.073789,,
Eugowra Cemetery,Eugowra, New South Wales, Australia,"LOT 7096 Victoria St Eugowra, New South Wales, 2806 Australia",148.369117,-33.420105,,
Euston Cemetery,Euston, New South Wales, Australia,"Cowper Street Euston, Balranald Shire Council, New South Wales, 2737 Australia",142.73743914813,-34.585004920916, Balranald Shire Council,
Field of Mars Cemetery,Sydney, New South Wales, Australia,"3 Wellington Road Sydney, undefined, New South Wales, 2112 Australia 
                         
                    ",151.12635,-33.81269, undefined,https://nmclm.com.au/locations/field-of-mars/
Ridgehaven Cemetery,Adelaide, South Australia, Australia,"245 Stevens Drive Adelaide, Adelaide, South Australia, 5097 Australia",138.703111,-34.817103, Adelaide,
Eulah Creek Cemetery,Eulah Creek, New South Wales, Australia,"384 Eulah Creek Rd Eulah Creek, New South Wales, 2390 Australia",149.930334,-30.339843,,
Regency Farm Cemetery,Mount Barker, South Australia, Australia,"Bollen Road Mount Barker, Mount Barker District Council, South Australia, 5251 Australia",138.845441,-35.076964, Mount Barker District Council,
Robe Cemetery,Robe, South Australia, Australia,"129 Morphett Street Robe, District Council of Robe, South Australia, 5276 Australia",139.7507,-37.1677, District Council of Robe,
Riverton Pioneer Garden,Riverton, South Australia, Australia,"4 Torrens Rd Riverton, Light, South Australia, 5412 Australia",138.748567,-34.155618, Light,
Rosedale (Lutheran) Trinity Churchyard,Rosedale, South Australia, Australia,"491 Rosedale Road Rosedale, Light, South Australia, 5351 Australia 
                         
                    ",138.84656,-34.55796, Light,http://www.ozgenonline.com/~forever_remembered/rosenthal_lutheran.htm
Eumungerie General Cemetery,Eumungerie, New South Wales, Australia,"267 Mogriguy Rd Eumungerie, New South Wales, 2831 Australia",148.629999,-31.961738,,
Robertstown Zion Lutheran Cemetery,Robertstown, South Australia, Australia,"2547 Black Springs Rd Robertstown, Eyre, South Australia, 5381 Australia 
                         
                    ",139.075915,-33.98544, Eyre,http://www.robertstown.info/cemetries/cemzion.htm
Renmark Cemetery,Renmark West, South Australia, Australia,"Arumpo Street Renmark West, Renmark Paringa Council, South Australia, 5341 Australia 
                         
                    ",140.722526,-34.172376, Renmark Paringa Council,http://www.renmarkparinga.sa.gov.au/page.aspx?u=207
Riverton (Saint Peter) New Lutheran Churchyard,Riverton, South Australia, Australia,"99 Peters Hill Rd cnr Huppatz Rd Riverton, Light, South Australia, 5412 Australia",138.82386,-34.15405, Light,
Robertstown Saint John Lutheran Cemetery,Robertstown, South Australia, Australia,"Lot 182 Brady Rd Robertstown, Eyre, South Australia, 5381 Australia",139.0748,-33.99267, Eyre,
Riverton Cemetery,Riverton, South Australia, Australia,"1017 Barrier Hwy Riverton, Light, South Australia, 5412 Australia 
                         
                    ",138.745956,-34.140537, Light,http://www.claregilbertvalleys.sa.gov.au/page.aspx?u=132
Rendelsham Cemetery,Millicent, South Australia, Australia,"Lot 456 McCall Rd cnr Bevilaqua Rd Millicent, Grey, South Australia, 5280 Australia",140.22689,-37.5627, Grey,
Rhynie Cemetery,Rhynie, South Australia, Australia,"2 Milne St cnr Main North Rd Rhynie, Gawler, South Australia, 5412 Australia",138.688073,-34.141042, Gawler,
Radium Hill Cemetery,Oulnina, South Australia, Australia,"National Route 32 Oulnina, Pastoral Unincorporated Area, South Australia, 5440 Australia",140.606171,-32.328209, Pastoral Unincorporated Area,
Riverton Holy Trinity Anglican Church,Riverton, South Australia, Australia,"Webb Place Riverton, Light, South Australia, 5412 Australia",138.7475522037,-34.153198757214, Light,
Redhill (Saint Martin) Catholic Churchyard,Redhill, South Australia, Australia,"35 St Martins Rd Redhill, Daly, South Australia, 5521 Australia",138.22627,-33.54492, Daly,
Redhill Cemetery,Redhill, South Australia, Australia,"58 Old Cattle Trk Redhill, Daly, South Australia, 5521 Australia",138.238259,-33.557778, Daly,
Toombon Cemetery,Aberfeldy, Victoria, Australia,"LOT 6 Donnelly Creek Rd Aberfeldy, Victoria, 3825 Australia",146.398873,-37.737309,,
Tintaldra Cemetery,Pine Mountain, Victoria, Australia,"10686-10918 Murray River Rd Pine Mountain, Victoria, 3708 Australia",147.902541,-36.008392,,
Ramco Cemetery,Ramco, South Australia, Australia,"Ramco Road Ramco, The District Council of Loxton Waikerie, South Australia, 5322 Australia",139.932424,-34.168819, The District Council of Loxton Waikerie,
Raukkan Aboriginal Cemetery,Narrung, South Australia, Australia,"Taplin Street Narrung, Coorong District Council, South Australia, 5259 Australia",139.12616915477,-35.510475993945, Coorong District Council,
Thoona (Mokoan) Cemetery,Thoona, Victoria, Australia,"1373 Goorambat-Thoona Rd Thoona, Victoria, 3726 Australia",146.037,-36.381,,
The Springs Cemetery,Glenmaggie, Victoria, Australia,"Springs Rd Glenmaggie, Victoria, 3858 Australia",146.549075,-37.759379,,
Toongabbie,Toongabbie, Victoria, Australia,"30 Cemetery Rd Toongabbie, Victoria, 3856 Australia",146.616824,-38.063927,,
Tooan Cemetery,Mitre, Victoria, Australia,"41 Tooan-Duffholme Rd Mitre, Victoria, 3409 Australia",141.752429,-36.770534,,
Quorn lone grave,Quorn, South Australia, Australia,"Wolseley Terrace Quorn, The Flinders Ranges Council, South Australia, 5433 Australia",138.0388,-32.353, The Flinders Ranges Council,
Toolamba Cemetery,Toolamba, Victoria, Australia,"1620 River Rd Toolamba, Victoria, 3614 Australia",145.309745,-36.515635,,
Taylor family grave,Walhalla East, Victoria, Australia,"Springs Rd Walhalla East, Victoria, 3825 Australia",146.566114,-37.902363,,
Thorpdale/Childers Cemetery,Thorpdale 3835, Victoria, Australia,"277 Chute Rd Thorpdale 3835, Victoria, 3835 Australia",146.13662,-38.3092,,
Watsonville Cemetery,Watsonville, Queensland, Australia,"LOT 116 Herberton-Petford Rd Watsonville, Queensland, 4887 Australia",145.308229,-17.374949,,
Thoona War Memorial,Thoona, Victoria, Australia,"47 Sargeant Street Thoona, Victoria Australia",146.077833,-36.339328,,
Timor (Bowenvale) Cemetery,Bowenvale, Victoria, Australia,"LOT 18E Cemetery Rd Bowenvale, Victoria, 3465 Australia",143.705941,-36.989078,,
The Bendigo Joss House ,Bendigo, Victoria, Australia,"3a Finn Street Bendigo, Victoria, 3550 Australia",144.291602,-36.739684,,
Thoona Cemetery,Thoona, Victoria, Australia,"129 Sargeant St Thoona, Victoria, 3726 Australia",146.081943,-36.333506,,
Thomastown Cemetery,Melbourne, Victoria, Australia,"41 Rosedale Drive Melbourne, Victoria, 3075 Australia",145.007306,-37.670914,,
Teesdale Cemetery,Teesdale, Victoria, Australia,"5-13 Squires Road Teesdale, Victoria, 3328 Australia",144.04114872887,-38.013705549779,,
Warra Cemetery,Warra, Queensland, Australia,"LOT 64 Warrego Hwy Warra, Queensland, 4411 Australia",150.922592,-26.936889,,
Tongala Cemetery,Tongala, Victoria, Australia,"415 Day Road Tongala, Victoria, 3621 Australia",144.96573,-36.27568,,
"Templestowe Cemetery, Victoria, Australia",Melbourne, Victoria, Australia,"263 Foote Street Melbourne, City of Manningham, Victoria, 3106 Australia 
                         
                    ",145.14166519027,-37.759537401036, City of Manningham,https://www.gmct.com.au/our-locations/templestowe-cemetery
Wandoan Cemetery,Wandoan, Queensland, Australia,"LOT 133 Leichhardt Hwy Wandoan, Queensland, 4419 Australia",149.935849,-26.078626,,
Thomastown Wesleyan Cemetery,Melbourne, Victoria, Australia,"1a Stewart Street Melbourne, Victoria, 3074 Australia",145.011829,-37.680896,,
Terang Victoria Australia,Terang, Victoria, Australia,"124 Cemetery Rd,  Terang, Corangamite Shire, Victoria, 3265 Australia",142.909627694397,-38.2523298889786, Corangamite Shire,
Templestowe Cemetery,Melbourne, Victoria, Australia,"263 Foote Street Melbourne, City of Manningham, Victoria, 3106 Australia 
                         
                    ",145.140722,-37.759746, City of Manningham,https://www.gmct.com.au/our-locations/templestowe-cemetery
Wallumbilla Cemetery,Wallumbilla, Queensland, Australia,"LOT 195 Wallumbilla North Rd Wallumbilla, Queensland, 4428 Australia",149.187008,-26.573119,,
Vernor German Baptist Cemetery,Vernor, Queensland, Australia,"83 Old Fernvale Rd Vernor, Queensland, 4306 Australia",152.628444,-27.456004,,
Warwick Cemetery,Warwick, Queensland, Australia,"LOT 405 Wentworth St Warwick, Queensland, 4370 Australia",152.003338,-28.21001,,
Upper Freestone Cemetery,Upper Freestone, Queensland, Australia,"LOT 79 McMasters Rd Upper Freestone, Queensland, 4370 Australia",152.198576,-28.135968,,
Tummaville Cemetery,Tummaville, Queensland, Australia,"LOT 1 Owens Scrub Rd Tummaville, Queensland, 4352 Australia",151.428002,-27.873291,,
Tully New Cemetery *,Tully, Queensland, Australia,"LOT 5 Campbell Street Tully, Queensland, 4854 Australia",145.91961,-17.94659,,
Essington - Brisbane Valley Catholic Cemetery,Essington, New South Wales, Australia,"LOT 22 Gradys Ln Essington, New South Wales, 2795 Australia",149.735788,-33.735975,,
Euchareena Cemetery,Euchareena, New South Wales, Australia,"LOT 162 Euchareena Rd Euchareena, New South Wales, 2866 Australia",149.083121,-32.946526,,
Euabalong Church/graveyard,Euabalong, New South Wales, Australia,"Lachlan Street Euabalong, Cobar Shire Council, New South Wales, 2877 Australia",146.472516,-33.109121, Cobar Shire Council,
Wallangarra Cemetery,Wallangarra, Queensland, Australia,"LOT 186 Bengalla St Wallangarra, Queensland, 4383 Australia",151.921592,-28.919899,,
Euabalong Cemetery,Euabalong, New South Wales, Australia,"LOT 49 Murrin St Euabalong, Cobar Shire Council, New South Wales, 2877 Australia",146.453976,-33.108797, Cobar Shire Council,
Erigolia Cemetery,Rankins Springs, New South Wales, Australia,"LOT 79 Mid Western Hwy Rankins Springs, Carrathool Shire Council, New South Wales, 2669 Australia",146.372401,-33.851578, Carrathool Shire Council,
Walkerston Cemetery,Walkerston, Queensland, Australia,"LOT 226 Dutton St Walkerston, Queensland, 4751 Australia",149.078582,-21.161371,,
Waiben (Thursday) Island Cemetery,Thursday Island, Queensland, Australia,"LOT 192 Aplin Rd Thursday Island, Queensland, 4875 Australia",142.217365,-10.577162,,
Warrill Park Lawn Cemetery,Willowbank, Queensland, Australia,"Willowbank Willowbank, Queensland, 4306 Australia",152.68885,-27.68032,,
Upper Coomera Cemetery - Gold Coast,Gold Coast, Queensland, Australia,"14 Saville Road Gold Coast, Queensland, 4209 Australia",153.277194,-27.895073,,
Upper Caboolture Uniting Church Cemetery,Brisbane, Queensland, Australia,"561 Caboolture River Road Brisbane, Queensland, 4510 Australia",152.89494669577,-27.1071721392719,,
Tully Old Cemetery,Tully, Queensland, Australia,"LOT 5 Campbell Street Tully, Queensland, 4854 Australia",145.91936,-17.94731,,
Tygum (Apostolic) Church/pioneer graveyard,Brisbane, Queensland, Australia,"109 Tygum Road Brisbane, Queensland, 4133 Australia",153.134453,-27.700246,,
USAF Memorial - Manson Park,Brisbane, Queensland, Australia,"19 Cemetery Road Brisbane, Queensland, 4305 Australia",152.766261,-27.632359,,
Elong Elong Cemetery,Elong Elong, New South Wales, Australia,"3594 Golden Hwy Elong Elong, New South Wales, 2831 Australia",149.087701,-32.111848,,
Elsmore Cemetery,Elsmore, New South Wales, Australia,"1115 Elsmore Rd Elsmore, New South Wales, 2360 Australia",151.267362,-29.802201,,
Victoria Plantation Cemetery,Victoria Plantation, Queensland, Australia,"LOT 3 Forrest Beach Road Victoria Plantation, Queensland, 4850 Australia",146.209331,-18.656097,,
Edgehill Lutheran Church Cemetery,Henty, New South Wales, Australia,"LOT 125 Edgehill Cemetery Rd Henty, New South Wales, 2658 Australia",146.953297,-35.523251,,
Erskine Flat Cemetery,Sofala, New South Wales, Australia,"86-260 Upper Turnon Rd Sofala, New South Wales, 2795 Australia",149.700573,-33.086298,,
Emmaville Cemetery,Emmaville, New South Wales, Australia,"LOT 2 Cadell St Emmaville, New South Wales, 2371 Australia",151.593239,-29.442606,,
Enfield (Saint Thomas) Anglican Churchyard,Sydney, New South Wales, Australia,"King Street Sydney, Burwood Council, New South Wales, 2136 Australia",151.09166,-33.89121, Burwood Council,
Ellenborough Cemetery,Ellenborough, New South Wales, Australia,"5680 Oxley Hwy Ellenborough, New South Wales, 2446 Australia",152.445981,-31.442216,,
Emu Plains - Saint Paul's Anglican Church Graveyard,Sydney, New South Wales, Australia,"21 Nixon Street Sydney, New South Wales, 2750 Australia",150.65917,-33.74871,,
Eccleston - Saint Paul Anglican Church Graveyard,Eccleston, New South Wales, Australia,"2413 Allyn River Rd Eccleston, New South Wales, 2311 Australia",151.49667,-32.26278,,
ECHUCA CEMETERY,Arumpo, New South Wales, Australia,"Gol Gol Road Arumpo, Balranald Shire Council, New South Wales, 2715 Australia",143.27137141217,-33.511034995386, Balranald Shire Council,
Qualco Cemetery,Qualco, South Australia, Australia,"Qualco Road Qualco, The District Council of Loxton Waikerie, South Australia, 5322 Australia",139.911547,-34.090775, The District Council of Loxton Waikerie,
"Quakers Meeting House/graveyard, Adelaide",Adelaide, South Australia, Australia,"Pennington Terrace Adelaide, Adelaide City Council, South Australia, 5006 Australia",138.59777,-34.91256, Adelaide City Council,
Purple Downs Station (private) cemetery,Pastoral Unincorporated Area, South Australia, Australia,"Pastoral Unincorporated Area, South Australia, 5720 Australia",136.89784040113,-30.78497227956,,
Eliza Rodd grave,Hartley, New South Wales, Australia,"Glenroy 200 Jenolan Caves Road Hartley, Lithgow City Council, New South Wales, 2790 Australia",150.147196,-33.545047, Lithgow City Council,
Port Wakefield Old Cemetery,Port Wakefield, South Australia, Australia,"Lot 481 Erith Rd Port Wakefield, Gawler, South Australia, 5550 Australia",138.169572,-34.189213, Gawler,
Ellalong Cemetery,Ellalong, New South Wales, Australia,"2 Hamilton St Ellalong, New South Wales, 2325 Australia",151.317272,-32.917926,,
Eckford Reserve - Lone Grave,Maitland, New South Wales, Australia,"Mawson Avenue Maitland, Maitland City Council, New South Wales, 2323 Australia",151.60073237237,-32.737954771573, Maitland City Council,
Eden Cemetery,Eden, New South Wales, Australia,"LOT 1 Lake St Eden, New South Wales, 2551 Australia",149.909262,-37.057728,,
Quorn Cemetery,Quorn, South Australia, Australia,"Cemetery Road Quorn, The Flinders Ranges Council, South Australia, 5433 Australia",138.060822,-32.35191, The Flinders Ranges Council,
Elinor Magee and childs grave,Sydney, New South Wales, Australia,"27c Grand Avenue Sydney, New South Wales, 2142 Australia",151.0252699713,-33.816342300657,,
Price Cemetery,Price, South Australia, Australia,"Falie Drive Price, Yorke Peninsula Council, South Australia, 5570 Australia",137.977904,-34.297583, Yorke Peninsula Council,
Probys grave,Kanyaka, South Australia, Australia,"Arden Vale Road Kanyaka, The Flinders Ranges Council, South Australia, 5434 Australia",138.089481,-32.084895, The Flinders Ranges Council,
Prospect Hill Methodist Cemetery,Meadows, South Australia, Australia,"Mount Ephraim Road Meadows, Mount Barker District Council, South Australia, 5201 Australia",138.750512,-35.223069, Mount Barker District Council,
Port Wakefield Cemetery,Port Wakefield, South Australia, Australia,"131 Annie Watt Rd Port Wakefield, Stanley, South Australia, 5550 Australia",138.147358,-34.166623, Stanley,
Port Pirie Cemetery,Port Pirie, South Australia, Australia,"38 Moppett Road Port Pirie, Mid North , South Australia, 5540 Australia 
                         
                    ",137.993253,-33.186853, Mid North ,http://www.pirie.sa.gov.au/page.aspx?u=130
Port Vincent Cemetery,Port Vincent, South Australia, Australia,"Marine Parade North Port Vincent, Yorke Peninsula Council, South Australia, 5581 Australia",137.857583,-34.770226, Yorke Peninsula Council,
Tawonga Old Cemetery,Mongans Bridge, Victoria, Australia,"5829-5965 Kiewa Valley Hwy Mongans Bridge, Victoria, 3691 Australia",147.08277,-36.57949,,
Port Neill Cemetery,Port Neill, South Australia, Australia,"160 North Coast Rd (Lot 48) Port Neill, Jervois, South Australia, 5604 Australia",136.341232,-34.131604, Jervois,
Port MacDonnell Cemetery (1903),Port MacDonnell, South Australia, Australia,"21 Cemetery Rd Port MacDonnell, Grey, South Australia, 5291 Australia 
                         
                    ",140.663106,-38.055845, Grey,https://www.dcgrant.sa.gov.au/cemetery
Port Victoria Cemetery,Port Victoria, South Australia, Australia,"Bray Road Port Victoria, Yorke Peninsula Council, South Australia, 5573 Australia",137.494447,-34.487146, Yorke Peninsula Council,
Port Lincoln RSL Garden of Remembrance,Port Lincoln, South Australia, Australia,"Lot 2 Bernard Place Port Lincoln, Flinders, South Australia, 5606 Australia",135.8455,-34.70789, Flinders,
Port MacDonnell Lighthouse Cemetery (1852-1907),Port MacDonnell, South Australia, Australia,"Cape Northumberland Road Port MacDonnell, Grey, South Australia Australia",140.662817,-38.053762, Grey,
Port Lincoln Pioneer Cemetery,Port Lincoln, South Australia, Australia,"Eric Ave Port Lincoln, Flinders, South Australia, 5606 Australia 
                         
                    ",135.844508,-34.708445, Flinders,https://www.portlincoln.sa.gov.au/service-and-facilities/cemeteries
Port Lincoln (North Shields) Cemetery,North Shields, South Australia, Australia,"LOT 102 Lincoln Hwy North Shields, Flinders, South Australia, 5607 Australia",135.868975,-34.618336, Flinders,
Port Lincoln (Happy Valley 2) Cemetery,Port Lincoln, South Australia, Australia,"24 Bernard Place Port Lincoln, Flinders, South Australia, 5606 Australia 
                         
                    ",135.844752,-34.707346, Flinders,https://www.portlincoln.sa.gov.au/page.aspx?u=509
Port Lincoln (Saint Mary of the Angels) Catholic Churchyard,Port Lincoln, South Australia, Australia,"Cnr Oxford & Sleaford Terraces Port Lincoln, Flinders, South Australia, 5606 Australia",135.85484,-34.72822, Flinders,
Tarcombe,Tarcombe, Victoria, Australia,"818 Ponkeen Creek Road Tarcombe, Victoria, 3666 Australia",145.419033,-36.93893,,
Tatyoon Cemetery,Tatyoon, Victoria, Australia,"1802 Tatyoon North Road Tatyoon, Victoria, 3378 Australia",142.99885,-37.48908,,
Tatura German War Cemetery,Tatura, Victoria, Australia,"Mulcahy Road Tatura, Victoria, 3616 Australia",145.204957,-36.42952,,
Tawonga/Coral Bank/Mullindolingong Cemetery,Coral Bank, Victoria, Australia,"LOT 2 Kiewa Valley Highway Coral Bank, Victoria, 3691 Australia",147.10258,-36.63267,,
Talbotville Cemetery,Wongungarra, Victoria, Australia,"Crooked River Track Wongungarra, Victoria, 3862 Australia",147.069114,-37.335275,,
Tarwin Lower Cemetery,Tarwin Lower, Victoria, Australia,"1285-1515 Inverloch-Venus Bay Rd Tarwin Lower, Victoria, 3956 Australia",145.862781,-38.670659,,
Tarrawarra Abbey Cemetery,Tarrawarra, Victoria, Australia,"659 Healesville-Yarra Glen Road Tarrawarra, Victoria, 3775 Australia",145.441254,-37.660061,,
Tarrawingee Cemetery,Tarrawingee, Victoria, Australia,"Cemetery Ln Tarrawingee, Victoria, 3678 Australia",146.485121,-36.3893,,
Tatura Cemetery,Tatura, Victoria, Australia,"155 Winter Road Tatura, Victoria, 3616 Australia",145.20517,-36.43061,,
Trinity Lutheran Cemetery,Mount Nebo, Queensland, Australia,"Mount Nebo, Queensland, 4520 Australia",152.83445813382,-27.387679414232,,
Taradale Cemetery,Taradale, Victoria, Australia,"1969 Calder Hwy Taradale, Victoria, 3447 Australia",144.342557,-37.121143,,
Tozer (Pioneer) Park,Gympie, Queensland, Australia,"15 Columbia St Gympie, Queensland, 4570 Australia",152.674491,-26.187637,,
Tarrayoukyan Cemetery,Tarrayoukyan, Victoria, Australia,"Tarrayoukyan Pidgeon Rd Tarrayoukyan, Victoria, 3315 Australia",141.581152,-37.32423,,
Tallarook Cemetery,Tallarook, Victoria, Australia,"69 Sanctuary Rd Tallarook, Victoria, 3659 Australia",145.097196,-37.099769,,
Talgarno Cemetery,Talgarno, Victoria, Australia,"39 Talgarno Cemetery Rd Talgarno, Victoria, 3691 Australia",147.14583660977,-36.073489565901,,
Tarnagulla (Llanelly) Cemetery,Llanelly, Victoria, Australia,"Wimmera Highway Llanelly, Victoria, 3551 Australia 
                         
                    ",143.83439,-36.75552,,http://www.Tarnagulla.org
Tallangatta Cemetery,Tallangatta East, Victoria, Australia,"8398 Murray Valley Hwy Tallangatta East, Victoria, 3700 Australia",147.274269,-36.19894,,
Toowoomba,Toowoomba, Queensland, Australia,"Grange Street Toowoomba, Queensland, 4350 Australia",151.9485967787,-27.56317292243,,
Trebonne Graves,Trebonne, Queensland, Australia,"918-974 Ingham-Abergowrie Road Trebonne, Queensland, 4850 Australia",146.07460889817,-18.624207342338,,
Swan Hill Cemetery,Swan Hill, Victoria, Australia,"89 Wattie St Swan Hill, Victoria, 3585 Australia",143.554229,-35.354721,,
Tabor (Lutheran) Church/Graveyard,Tabor, Victoria, Australia,"253-273 Tabor Rd Tabor, Victoria, 3289 Australia",142.20572,-37.83494,,
Swanwater West Cemetery,Swanwater West, Victoria, Australia,"1489 Traynors Lagoon Rd Swanwater West, Victoria, 3480 Australia",143.02444,-36.515362,,
Toowong,Brisbane, Queensland, Australia,"59 Bristol Street Brisbane, Queensland, 4101 Australia",153.01012518631,-27.486298434849,,
Torrens Creek Cemetery,Torrens Creek, Queensland, Australia,"3 Bedford Street Torrens Creek, Flinders Shire, Queensland, 4816 Australia",145.024787,-20.76418, Flinders Shire,
Toowong,Brisbane, Queensland, Australia,"56 Moore Street Brisbane, Queensland, 4051 Australia",152.99229034047,-27.428515045725,,
Toowoomba Garden of Remembrance,Toowoomba, Queensland, Australia,"Memorial Drive Toowoomba, Queensland, 4350 Australia 
                         
                    ",151.943064,-27.606982,,https://www.toowoombacrem.com.au
Toompine Cemetery,Quilpie, Queensland, Australia,"LOT 100 Congo St Quilpie, Queensland, 4480 Australia",144.3658,-27.2175,,
Theodore Cemetery,Lonesome Creek, Queensland, Australia,"LOT 435 Woolthorpe Rd Lonesome Creek, Queensland, 4719 Australia",150.099858,-24.960367,,
Townsville (Belgian Gardens) Cemetery,Townsville, Queensland, Australia,"88 Old Common Road Townsville, Townsville City, Queensland, 4810 Australia",146.78591,-19.24533, Townsville City,
Toogoolawah Cemetery,Toogoolawah, Queensland, Australia,"55 Cemetery Rd Toogoolawah, Queensland, 4313 Australia 
                         
                    ",152.378964146172,-27.0575511164525,,http://eservices.somerset.qld.gov.au/cemres.asp?decname=tomlins&decname2=&deccem=%25&btnSearch=Search
Eccleston - Bingleburra Belgrave Cemetery,Eccleston, New South Wales, Australia,"2167 Allyn River Rd Eccleston, New South Wales, 2311 Australia",151.500971,-32.284792,,
Toorbul Historic Cemetery,Toorbul, Queensland, Australia,"LOT 165 Pumicestone Rd Toorbul, Queensland, 4510 Australia",153.037629,-27.028931,,
Tingalpa Christ Church (Anglican) Church/cemetery,Brisbane, Queensland, Australia,"1339 Wynnum Road Brisbane, Queensland, 4173 Australia",153.111745,-27.472727,,
The Gums Cemetery,The Gums, Queensland, Australia,"LOT 34 Surat Developmental Rd The Gums, Queensland, 4406 Australia",150.19633,-27.339031,,
Tiaro Cemetery,Tiaro, Queensland, Australia,"6145 Bruce Hwy Tiaro, Queensland, 4650 Australia",152.585685,-25.717365,,
East Lismore Old Cemetery,Lismore, New South Wales, Australia,"8 Amaroo Place Lismore, New South Wales, 2480 Australia",153.28479,-28.82323,,
Thornborough Cemetery,Thornborough, Queensland, Australia,"Mt Mulligan Rd Thornborough, Queensland, 4871 Australia",145.002174,-16.945818,,
Tingoora Cemetery,Tingoora, Queensland, Australia,"40-82 Tingoora Cemetery Rd Tingoora, Queensland, 4608 Australia",151.830253,-26.363091,,
Eatonsville (Mynleford) Cemetery,Mylneford, New South Wales, Australia,"LOT 7304 Cemetery Rd Mylneford, New South Wales, 2460 Australia",152.838793,-29.632991,,
Thargomindah Historic Cemetery,Thargomindah, Queensland, Australia,"Thargomindah Bypass Thargomindah, Queensland, 4492 Australia",143.813001,-27.997375,,
The Gap (Uniting) Church/Graveyard,Brisbane, Queensland, Australia,"1050 Waterworks Road Brisbane, Queensland, 4061 Australia",152.94814,-27.44473,,
Ebor General Cemetery,Ebor, New South Wales, Australia,"LOT 2 Ebor Falls Rd Ebor, New South Wales, 2453 Australia",152.342232,-30.405192,,
East Kangaloon Cemetery,East Kangaloon, New South Wales, Australia,"LOT 4 Kangaloon Road East Kangaloon, New South Wales, 2576 Australia",150.579337,-34.5578,,
Ebenezer (Uniting) Cemetery,Ebenezer, New South Wales, Australia,"115 Coromandel Rd Ebenezer, New South Wales, 2756 Australia",150.891339,-33.536283,,
East Kangaloon Cemetery,East Kangaloon, New South Wales, Australia,"4 Kirkland Rd East Kangaloon, New South Wales, 2576 Australia",150.579407,-34.537678,,
East Maitland Cemetery,Maitland, New South Wales, Australia,"228 Raymond Terrace Road Maitland, New South Wales, 2323 Australia",151.609608,-32.756991,,
EAST MAITLAND PRESBYTERIAN CHURCH,Maitland, New South Wales, Australia,"64 George Street Maitland, Maitland City Council, New South Wales, 2323 Australia",151.592442,-32.748648, Maitland City Council,
EAST MAITLAND ANGLICAN,Maitland, New South Wales, Australia,"55 William Street Maitland, New South Wales, 2323 Australia",151.581899,-32.749582,,
Dyraaba Cemetery,Dyraaba, New South Wales, Australia,"LOT 381 Dyraaba Rd Dyraaba, New South Wales, 2470 Australia",152.906084,-28.749977,,
Eastern Suburbs Memorial Park,Sydney, New South Wales, Australia,"Brotchie Avenue Sydney, Randwick City Council, New South Wales, 2036 Australia 
                         
                    ",151.228677,-33.973941, Randwick City Council,http://www.esmp.net.au/home
Duri Cemetery,Duri, New South Wales, Australia,"196 Bielefeld Rd Duri, New South Wales, 2344 Australia",150.799155,-31.214489,,
Port Germein Cemetery,Port Germein, South Australia, Australia,"27 Sheoak Rd Port Germein, Frome, South Australia, 5495 Australia",137.984714,-33.002013, Frome,
East Gresford Catholic Cemetery,Gresford - East Gresford, New South Wales, Australia,"4 Park Street Gresford - East Gresford, New South Wales, 2311 Australia",151.554818,-32.433419,,
East Ballina Cemetery,Ballina Est, New South Wales, Australia,"1 Suvla Street Ballina Est, New South Wales, 2478 Australia",153.58969,-28.86215,,
East Gresford (Jupp) Cemetery,East Gresford, New South Wales, Australia,"Bingleburra Rd East Gresford, New South Wales, 2311 Australia",151.555941,-32.426266,,
Port Elliot (Castle Ranges) Cemetery,Port Elliot, South Australia, Australia,"55 Higgins Road Port Elliot, Alexandrina Council, South Australia, 5212 Australia",138.6675564418,-35.476235004896, Alexandrina Council,
Dural Uniting Church Cemetery,Dural, New South Wales, Australia,"25 Vineys Ln Dural, New South Wales, 2158 Australia",151.029468,-33.691535,,
Dural - Saint Jude's Anglican Cemetery,Sydney, New South Wales, Australia,"885-887 Old Northern Road Sydney, New South Wales, 2158 Australia",151.02805,-33.68429,,
Port Lincoln (Happy Valley 1) Cemetery,Port Lincoln, South Australia, Australia,"Bernard Pl cnr Eric Ave Port Lincoln, Flinders, South Australia, 5606 Australia 
                         
                    ",135.844480597553,-34.7078720811606, Flinders,https://www.portlincoln.sa.gov.au/page.aspx?u=509
Poochera Cemetery,Poochera, South Australia, Australia,"Franceys Road Poochera, The District Council of Streaky Bay, South Australia, 5655 Australia",134.837138,-32.710588, The District Council of Streaky Bay,
Dunoon Cemetery,Dunoon, New South Wales, Australia,"1271 Dunoon Rd Dunoon, New South Wales, 2480 Australia",153.303325,-28.697199,,
Port Elliot Waterport Bible Christian Cemetery,Port Elliot, South Australia, Australia,"176-178 Waterport Road Port Elliot, Alexandrina Council, South Australia, 5212 Australia",138.667863,-35.52117, Alexandrina Council,
Port Elliot/Middleton Cemetery,Port Elliot, South Australia, Australia,"169 Lines Road Port Elliot, Alexandrina Council, South Australia, 5212 Australia",138.691072,-35.506751, Alexandrina Council,
Point Sturt Church of Christ graveyard,Clayton Bay, South Australia, Australia,"Point Sturt Road Clayton Bay, Alexandrina Council, South Australia, 5256 Australia",138.953756,-35.481594, Alexandrina Council,
Port Broughton Cemetery,Port Broughton, South Australia, Australia,"6189 Spencer Hwy (Lot 111S) Port Broughton, Daly, South Australia, 5522 Australia",137.929407,-33.617874, Daly,
Port Kenny Cemetery,Mount Cooper, South Australia, Australia,"Pygery-Port Kenny Road Mount Cooper, The District Council of Streaky Bay, South Australia, 5671 Australia",134.7203690251,-33.153131461021, The District Council of Streaky Bay,
Port Elliot Anglican Cemetery,Port Elliot, South Australia, Australia,"169 Lines Road Port Elliot, Alexandrina Council, South Australia, 5212 Australia",138.69313,-35.50692, Alexandrina Council,
Port Elliot (Saint John) Catholic Cemetery,Port Elliot, South Australia, Australia,"1-7 Cameron Street Port Elliot, Alexandrina Council, South Australia, 5212 Australia",138.67638,-35.52404, Alexandrina Council,
Point Brown/Alberginie Cemetery,Smoky Bay, South Australia, Australia,"LOT 8 Point Brown Rd Smoky Bay, The District Council of Ceduna, South Australia, 5680 Australia",133.983284,-32.462228, The District Council of Ceduna,
Point Pearce Cemetery,Point Pearce, South Australia, Australia,"Centenary Avenue Point Pearce, Yorke Peninsula Council, South Australia, 5573 Australia",137.505674,-34.420808, Yorke Peninsula Council,
Port Augusta Cemetery,Port Augusta, South Australia, Australia,"Carlton Parade Port Augusta, Port Augusta City Council, South Australia, 5700 Australia",137.784262338623,-32.4869890473772, Port Augusta City Council,
Poonindie Cemetery,North Shields, South Australia, Australia,"Lot 475 Cemetery Cl North Shields, Flinders, South Australia, 5607 Australia",135.879375,-34.587984, Flinders,
Port Augusta West Cemetery,Port Augusta, South Australia, Australia,"25 Old Tarcoola Road Port Augusta, Port Augusta City Council, South Australia, 5700 Australia 
                         
                    ",137.74391,-32.47405, Port Augusta City Council,http://www.portaugusta.sa.gov.au/page.aspx?u=1136
Port Augusta West Old Cemetery,Port Augusta, South Australia, Australia,"315 Caroona Road Port Augusta, Port Augusta City Council, South Australia, 5700 Australia 
                         
                    ",137.743926586647,-32.4978704376261, Port Augusta City Council,http://www.southaustralianhistory.com.au/portaugustaw.htm
Pioneer Landing Drive (Loxton) Cemetery,Loxton, South Australia, Australia,"Karoonda Highway Loxton, The District Council of Loxton Waikerie, South Australia, 5333 Australia",140.543592,-34.460758, The District Council of Loxton Waikerie,
Strathfieldsaye Cemetery,Emu Creek , Victoria, Australia,"Emu Creek Rd Emu Creek , Victoria, 3551 Australia",144.355094039825,-36.8345862202724,,
Stockyard Hill/Auburn Cemetery,Stockyard Hill, Victoria, Australia,"1314 Stockyard Hill Rd Stockyard Hill, Victoria, 3373 Australia",143.336619,-37.533193,,
Point Pass (Saint Peter) Lutheran Cemetery,Point Pass, South Australia, Australia,"Lot 502 St Peters Lane  Point Pass, Eyre, South Australia, 5374 Australia",139.0541,-34.0742, Eyre,
Store Point Burial Ground,Yangoura, Victoria, Australia,"Army North Track Yangoura, Victoria, 3858 Australia",146.500657,-37.755775,,
Point Pass (Immanuel Lutheran) Churchyard,Point Pass, South Australia, Australia,"1028 Worlds End Hwy Rd Point Pass, Eyre, South Australia, 5374 Australia",139.05218,-34.08838, Eyre,
Streatham Cemetery,Streatham, Victoria, Australia,"3770 Eurambeen-Streatham Rd Streatham, Victoria, 3351 Australia",143.07744,-37.671439,,
Station Cemetery,Paradise, Victoria, Australia,"5018 C241 Paradise, Northern Grampians Shire, Victoria Australia",143.1218427,-36.7866728, Northern Grampians Shire,
Sutherlands Creek Cemetery,Moorabool, Victoria, Australia,"LOT 1PT Andersons Rd Moorabool, Victoria, 3221 Australia",144.251926,-38.026239,,
Strathbogie Cemetery,Strathbogie, Victoria, Australia,"204 Mt Wombat Road Strathbogie, Strathbogie Shire, Victoria, 3666 Australia",145.6927221637,-36.838708461837, Strathbogie Shire,
Sutton Grange Cemetery,Sutton Grange, Victoria, Australia,"LOT 1 Bendigo-Sutton Grange Rd Sutton Grange, Victoria, 3448 Australia",144.353791,-36.980275,,
Strathdownie Cemetery,Strathdownie, Victoria, Australia,"B160 Strathdownie, Victoria, 3312 Australia",141.1676801648,-37.717766532345,,
Sunbury Public Cemetery,Sunbury, Victoria, Australia,"80A Shields St Sunbury, City of Hume, Victoria, 3429 Australia",144.7314565829,-37.589315100454, City of Hume,
Stratford (Nuntin) Cemetery,Stratford, Victoria, Australia,"1294 Princes Hwy Stratford, Victoria, 3862 Australia",147.067194,-37.993829,,
Stawell War Memorial,Stawell, Victoria, Australia,"Victoria Street Stawell, Victoria Australia",142.777009,-37.058165,,
Steiglitz Cemetery,Steiglitz, Victoria, Australia,"2531 Steiglitz Rd Steiglitz, Victoria, 3331 Australia",144.188438,-37.887926,,
Stawell/ Pleasant Creek Cemetery,Stawell, Victoria, Australia,"15 Lake Rd Stawell, Northern Grampians Shire, Victoria, 3380 Australia",142.764952,-37.055194, Northern Grampians Shire,
St Marys Catholic Church - Our Lady of the Rosary,Kyneton, Victoria, Australia,"Hutton Street Kyneton, Victoria, 3444 Australia",144.451841,-37.246875,,
Stuart Mill Cemetery,Stuart Mill, Victoria, Australia,"Dalyenong Road Stuart Mill, Victoria, 3478 Australia",143.2949,-36.7996,,
Stanley Cemetery,Stanley, Victoria, Australia,"714 Stanley Rd Stanley, Victoria, 3747 Australia",146.747878,-36.396034,,
Texas Old Cemetery,Texas, Queensland, Australia,"LOT 268 Wilson St Texas, Queensland, 4385 Australia",151.168232,-28.853796,,
Texas Cemetery,Texas, Queensland, Australia,"LOT 270 Mingoola Rd Texas, Queensland, 4385 Australia",151.178977,-28.848423,,
St Paul's Anglican Church War Memorial ,Kyneton, Victoria, Australia,"26ï¿½28 Yaldwyn Street W Kyneton, Victoria Australia",144.450055,-37.24529,,
Stanley (Saint Peter) Catholic Churchyard,Stanley, Victoria, Australia,"Smees Rd Stanley, Victoria, 3747 Australia",146.75859559755,-36.404595431286,,
Staffordshire Reef Cemetery,Staffordshire Reef, Victoria, Australia,"579 Donald McLeans Rd Staffordshire Reef, Victoria, 3351 Australia",143.699333,-37.751572,,
Thallon Cemetery,Thallon, Queensland, Australia,"32-34 William St Thallon, Queensland, 4497 Australia",148.866805,-28.634982,,
Tenterfield *,Brisbane, Queensland, Australia,"3 Connemara Court Brisbane, Tenterfield, Queensland, 4305 Australia",152.75211399324,-27.659511509329, Tenterfield,
Tarbrax Station lone grave,Albion, Queensland, Australia,"Unnamed Road Albion, Queensland, 4822 Australia",142.452529,-21.107868,,
Thargomindah Cemetery,Norley, Queensland, Australia,"Adventure Way Norley, Queensland, 4492 Australia",143.802426,-27.904668,,
Taroom Cemetery,Taroom, Queensland, Australia,"2 Bonner St Taroom, Queensland, 4420 Australia",149.805815,-25.643151,,
Taromeo Homestead Cemetery,Taromeo, Queensland, Australia,"LOT 218 Old Esk Rd Taromeo, Queensland, 4306 Australia",152.152841,-26.818062,,
Tarampa (Apostolic) Church/Graveyard,Tarampa, Queensland, Australia,"51-61 Manthey Rd Tarampa, Queensland, 4311 Australia",152.54628,-27.49075,,
Tara Cemetery,Tara, Queensland, Australia,"LOT 196 Chinchilla-Tara Rd Tara, Queensland, 4421 Australia",150.459506,-27.266095,,
Tewantin Cemetery,Sunshine Beach, Queensland, Australia,"15 Cooroy - Noosa Road Sunshine Beach, Queensland, 4565 Australia",153.025335,-26.394864,,
Tansey Cemetery,Tansey, Queensland, Australia,"10 Tansey Cemetery Rd Tansey, Queensland, 4601 Australia",152.042455,-26.028172,,
Dundurrabin Cemetery,Dundurrabin, New South Wales, Australia,"LOT 9 Armidale Rd Dundurrabin, New South Wales, 2453 Australia",152.542462,-30.199814,,
Tarampa (Baptist) Church/Graveyard,Rifle Range, Queensland, Australia,"2665-2691 Forest Hill-Fernvale Rd Rifle Range, Queensland, 4311 Australia",152.54028,-27.46726,,
Targinie Cemetery,Targinie, Queensland, Australia,"LOT 47 Targinie Rd Targinie, Queensland, 4694 Australia",151.114325,-23.807974,,
Tamrookum (All Saints Anglican) Churchyard,Tamrookum, Queensland, Australia,"Lot 15 Tamrookum Church Rd Tamrookum, Queensland, 4285 Australia",152.9221,-28.12298,,
Tamborine Catholic Cemetery,Tamborine, Queensland, Australia,"83-89 Plunkett Rd Tamborine, Queensland, 4270 Australia",153.129053,-27.852139,,
Dubbo - Serisier Vault *,Dubbo, New South Wales, Australia,"LOT 135 Old Dubbo Rd Dubbo, New South Wales, 2830 Australia",148.680011,-32.338974,,
Tamborine Village Cemetery,Tamborine, Queensland, Australia,"487 Plunkett Road Tamborine, Queensland, 4270 Australia",153.16332,-27.84245,,
Dungowan Cemetery,Dungowan, New South Wales, Australia,"LOT 34 Ogunbil Rd Dungowan, New South Wales, 2340 Australia",151.133251,-31.217114,,
Dubbo - Butlers Falls Pioneer Cemetery,Butlers Falls, New South Wales, Australia,"LOT 181 Angle Rd Butlers Falls, New South Wales, 2830 Australia",148.625373,-32.301938,,
Dungog Uniting Church,Dungog, New South Wales, Australia,"244 Dowling Street Dungog, Dungog Shire Council, New South Wales Australia",151.757657,-32.400605, Dungog Shire Council,
Tambo Cemetery,Tambo, Queensland, Australia,"51 Cemetery Road Tambo, Blackall Tambo Regional, Queensland, 4478 Australia",146.25169885579,-24.872223505532, Blackall Tambo Regional,
Dungog Anglican Church,Dungog, New South Wales, Australia,"12 Chapman Street Dungog, Dungog Shire Council, New South Wales, 2420 Australia",151.757227,-32.406333, Dungog Shire Council,
Tallegalla Pioneer Catholic Cemetery,Tallegalla, Queensland, Australia,"146-170 Tallegalla Two Tree Hill Rd Tallegalla, Queensland, 4340 Australia",152.566531,-27.582148,,
Dungog Presbyterian Church,Dungog, New South Wales, Australia,"63 Dowling Street Dungog, Dungog Shire Council, New South Wales, 2420 Australia",151.756753,-32.405932, Dungog Shire Council,
Doyles Creek Cemetery,Doyles Creek, New South Wales, Australia,"LOT 51 Doyles Creek Rd Doyles Creek, New South Wales, 2330 Australia",150.799041,-32.519532,,
Dunedoo Cemetery,Dunedoo, New South Wales, Australia,"Avonside Rd Dunedoo, New South Wales, 2844 Australia",149.352219,-32.044133,,
Dubbo Western District Memorial Park - Lawn Cemetery,Dubbo, New South Wales, Australia,"6-11 Boothenba Rd Dubbo, New South Wales, 2830 Australia",148.626743,-32.204434,,
Dungog,Tabbil Creek, New South Wales, Australia,"LOT 1 Cemetery Rd Tabbil Creek, New South Wales, 2420 Australia",151.738657,-32.419403,,
Dundee Cemetery,Dundee, New South Wales, Australia,"LOT 264 New England Hwy Dundee, New South Wales, 2370 Australia",151.867425,-29.579653,,
Does not exist,Bargo, New South Wales, Australia,"21 Ironbark Road Bargo, Wollondilly Shire Council, New South Wales Australia",150.582003,-34.283277, Wollondilly Shire Council,
Drake - Village Cemetery,Drake, New South Wales, Australia,"LOT 39 Timbarra St Drake, New South Wales, 2469 Australia 
                         
                    ",152.386207,-28.935115,,http://austcemindex.com/cemetery?cemid=906
Dodsworth,Sydney, New South Wales, Australia,"Larkin Place Sydney, Hawkesbury City Council, New South Wales, 2758 Australia",150.79278236831,-33.508728424055, Hawkesbury City Council,
Denison Town Pioneer Cemetery,Leadville, New South Wales, Australia,"Leadville Rd Leadville, New South Wales, 2844 Australia",149.505,-32.029,,
Pintumba lone grave,Coorabie, South Australia, Australia,"Coorabie Road Coorabie, Pastoral Unincorporated Area, South Australia, 5690 Australia",132.255989,-31.828058, Pastoral Unincorporated Area,
Pine Hut Creek Cemetery,Sedan, South Australia, Australia,"Three Chain Road Sedan, Mid Murray Council, South Australia, 5353 Australia",139.247783,-34.603551, Mid Murray Council,
Dorrigo Cemetery,Dorrigo, New South Wales, Australia,"3895 Waterfall Way Dorrigo, New South Wales, 2453 Australia",152.718072,-30.35849,,
Pewsey Vale Cemetery,Pewsey Vale, South Australia, Australia,"551 Trial Hill Rd (Lot 105) Pewsey Vale, Adelaide, South Australia, 5351 Australia",138.979572,-34.619765, Adelaide,
Pilgrim Lutheran Cemetery,Sandleton, South Australia, Australia,"Sandleton Road Sandleton, Mid Murray Council, South Australia, 5356 Australia",139.372332,-34.434001, Mid Murray Council,
Dignams Creek - Bottin Family graves,Dignams Creek, New South Wales, Australia,"1071 Reedy Creek Road Dignams Creek, New South Wales, 2546 Australia",149.97059,-36.2404,,
Pinnaroo Cemetery,Pinnaroo, South Australia, Australia,"15 Devon Terrace Pinnaroo, Southern Mallee District Council, South Australia, 5304 Australia",140.903276,-35.253875, Southern Mallee District Council,
Denman - Saint Matthias Anglican Churchyard,Denman, New South Wales, Australia,"33-35 Palace St Denman, New South Wales, 2328 Australia",150.6885,-32.39205,,
Pichi Richi Cemetery,Quorn, South Australia, Australia,"Heysen Trail Quorn, The Flinders Ranges Council, South Australia, 5433 Australia",137.969868,-32.414772, The Flinders Ranges Council,
Piednippie Catholic Cemetery,Poochera, South Australia, Australia,"Streaky Bay Road Poochera, The District Council of Streaky Bay, South Australia, 5655 Australia",134.451256,-32.732739, The District Council of Streaky Bay,
Denman Cemetery,Denman, New South Wales, Australia,"LOT 219 Rosemount Rd Denman, New South Wales, 2328 Australia",150.669261,-32.389825,,
Pink Lake Cemetery,Yorketown, South Australia, Australia,"Pink Lake Road Yorketown, Yorke Peninsula Council, South Australia, 5576 Australia",137.59067,-35.04673, Yorke Peninsula Council,
Philptown Cemetery / Chain of Ponds,Chain Of Ponds, South Australia, Australia,"LOT 51 North East Road Chain Of Ponds, Adelaide, South Australia, 5231 Australia",138.83168,-34.823078, Adelaide,
Peters Hill Pioneer Lutheran Cemetery,Riverton, South Australia, Australia,"Huppatz Road Riverton, Light, South Australia, 5412 Australia",138.82303922615,-34.169300950471, Light,
Peterborough Cemetery,Peterborough, South Australia, Australia,"Cemetery Road Peterborough, The District Council of Peterborough, South Australia, 5422 Australia 
                         
                    ",138.850295,-32.983114, The District Council of Peterborough,http://www.peterborough.sa.gov.au/page.aspx?cemeteryId=49&searchString=&u=240&t=cemeterySearch&cemeterySearchMode=results
Penwortham Cemetery,Penwortham, South Australia, Australia,"8 Bagshaw Cl cnr Church Ln Penwortham, Stanley, South Australia, 5453 Australia",138.640551,-33.922323, Stanley,
Penwortham (Saint Mark) Anglican Churchyard,Penwortham, South Australia, Australia,"9 Bagshaw Cl cnr Church Ln Penwortham, Stanley, South Australia, 5453 Australia",138.6411,-33.92177, Stanley,
Penong Cemetery,Ceduna, South Australia, Australia,"Eyre Highway Ceduna, The District Council of Ceduna, South Australia, 5690 Australia",133.029391,-31.928007, The District Council of Ceduna,
Perponda Cemetery,Perponda, South Australia, Australia,"LOT 137 Neds Well Rd Perponda, The District Council of Karoonda East Murray, South Australia, 5308 Australia",139.823233,-34.986078, The District Council of Karoonda East Murray,
Penwortham Methodist Cemetery,Penwortham, South Australia, Australia,"Lot 424 off Harrold Rd Penwortham, Stanley, South Australia, 5453 Australia",138.636314,-33.917851, Stanley,
St John's Church Walhalla,Walhalla, Victoria, Australia,"3 Church Hill Road Walhalla, Baw Baw Shire, Victoria, 3825 Australia",146.451598,-37.942289, Baw Baw Shire,
Springvale Botanical Cemetery ,Springvale , Victoria , Australia,"500 Princes Hwy Springvale , Victoria Australia ",,,,
Pennington Gardens Royal Australian Navy Memorial,Adelaide, South Australia, Australia,"University Oval Road Adelaide, Adelaide City Council, South Australia, 5006 Australia",138.600715,-34.914115, Adelaide City Council,
Penola Cemetery,Penola, South Australia, Australia,"16032 Riddoch Hwy (Lot 217) Penola, Grey, South Australia, 5277 Australia",140.83628,-37.400921, Grey,
Penola Old Cemetery,Penola, South Australia, Australia,"LOT 322 Old Cemetery Rd Penola, Grey, South Australia, 5277 Australia",140.841293,-37.366985, Grey,
"St Joseph's Catholic Church, Port Melbourne",Melbourne, Victoria, Australia,"274 Rouse Street Melbourne, Port Phillip City, Victoria, 3207 Australia",144.936768,-37.840305, Port Phillip City,
south portland cemetery,Portland, Victoria, Australia,"Derril Road Portland, Victoria, VIC 3305 Australia",141.59334182744,-38.370412611874,,
Spotswood Quarantine Station burial ground,Melbourne, Victoria, Australia,"410-428 Douglas Parade Melbourne, Victoria, 3015 Australia",144.894378,-37.836117,,
South Lillimur Cemetery,Lillimur, Victoria, Australia,"LOT 39A Three Chain Road Lillimur, Victoria, 3420 Australia",141.130027,-36.455779,,
St Kilda Cemetery,Melbourne, Victoria, Australia,"260-288 Dandenong Road Melbourne, Port Phillip City, Victoria, 3183 Australia 
                         
                    ",145.00236,-37.86133, Port Phillip City,http://stk.smct.org.au/
Springvale Botanical Cemetery,Melbourne, Victoria, Australia,"Main Drive Melbourne, Greater Dandenong City, Victoria, 3171 Australia 
                         
                    ",145.1807,-37.94308, Greater Dandenong City,http://sbc.smct.org.au/
"St John's Anglican Church, Glengarry",Glengarry, Victoria, Australia,"3 Railway Avenue Glengarry, Latrobe City, Victoria, 3854 Australia",146.574415,-38.128056, Latrobe City,
Sorrento graves,Willung South, Victoria, Australia,"252 Willung South Rd Willung South, Victoria, 3847 Australia",146.755129,-38.345383,,
Smythesdale General Cemetery,Smythesdale, Victoria, Australia,"1920-1946 B160 Smythesdale, Victoria, 3351 Australia",143.661737,-37.659463,,
Smythes Creek Cemetery,Smythesdale, Victoria, Australia,"1239 Glenelg Hwy Smythesdale, Victoria, 3351 Australia",143.712972,-37.61713,,
St Arnaud Cemetery,St Arnaud East, Victoria, Australia,"108 Cemetery Rd St Arnaud East, Victoria, 3478 Australia",143.28126,-36.62687,,
Springhurst Cemetery,Springhurst, Victoria, Australia,"275 Cemetery Rd Springhurst, Victoria, 3682 Australia",146.468675,-36.225373,,
South Portland Cemetery,Portland, Victoria, Australia,"229 Nelson Rd Portland, Victoria, 3305 Australia",141.592957,-38.370883,,
Spring Hill Cemetery,Spring Hill, Victoria, Australia,"Springhill-Glenlyon Rd Spring Hill, Victoria, 3444 Australia",144.323272,-37.300941,,
Swan Creek Cemetery,Swan Creek, Queensland, Australia,"128 Swan Creek School Rd Swan Creek, Queensland, 4370 Australia",152.136483,-28.19744,,
Surat Cemetery,Surat, Queensland, Australia,"112A Ivan St Surat, Queensland, 4417 Australia",149.075213,-27.157157,,
Speed Cemetery,Speed, Victoria, Australia,"Patchewollock-Sea Lake Rd Speed, Victoria, 3488 Australia",142.401312,-35.401897,,
Swanfels Pioneer Memorial Park,Swanfels, Queensland, Australia,"602 Swanfels Rd Swanfels, Queensland, 4371 Australia",152.26324,-28.16918,,
Smythes Creek Pioneer Cemetery,Smythesdale, Victoria, Australia,"1379 Glenelg Hwy Smythesdale, Victoria, 3351 Australia",143.702717,-37.626638,,
Tallebudgera Uniting Church Cemetery,Gold Coast, Queensland, Australia,"35 Trees Road Gold Coast, Queensland, 4228 Australia",153.426303138006,-28.1430028460525,,
Sorrento Cemetery,Melbourne, Victoria, Australia,"78 Normanby Road Melbourne, Victoria, 3944 Australia",144.72782,-38.34217,,
Smeaton Cemetery,Smeaton, Victoria, Australia,"280 Cemetery Rd Smeaton, Victoria, 3364 Australia",143.92215,-37.301832,,
Stony Creek Cemetery,Palmer, Queensland, Australia,"Palmer, Queensland, 4871 Australia",144.341164,-16.265507,,
Tallegalla Cemetery,Tallegalla, Queensland, Australia,"365-377 Rosewood Marburg Rd Tallegalla, Queensland, 4340 Australia",152.577462,-27.607415,,
Station Creek Cemetery,Croydon, Queensland, Australia,"National Route 1 Croydon, Queensland, 4871 Australia",142.217343,-18.162681,,
Tallebudgera Cemetery,Gold Coast, Queensland, Australia,"601 Old Coach Road Gold Coast, Queensland, 4228 Australia",153.426497,-28.124379,,
Stockport Cemetery,Brisbane, Queensland, Australia,"6 Griffith Road Brisbane, Moreton Bay Regional, Queensland, 4020 Australia",153.1143951416,-27.209297090915, Moreton Bay Regional,
Taabinga Lutheran Cemetery,Kumbia, Queensland, Australia,"Bunya Highway Kumbia, South Burnett Regional Council, Queensland, 4610 Australia",151.690219,-26.673277, South Burnett Regional Council,
Stannery Hills Cemetery,Irvinebank, Queensland, Australia,"Stannary Hills Walsh Rd Irvinebank, Queensland, 4887 Australia",145.221233,-17.333802,,
Tallebudgera Catholic Church Cemetery,Gold Coast, Queensland, Australia,"54 Trees Road Gold Coast, Queensland, 4228 Australia",153.424342797623,-28.1439637778211,,
Denison Town Cemetery,Leadville, New South Wales, Australia,"Leadville Rd Leadville, New South Wales, 2844 Australia",149.493574,-32.032132,,
Deniliquin War Cemetery,Deniliquin, New South Wales, Australia,"Cemetery Road Deniliquin, Deniliquin Council, New South Wales Australia",144.9449487,-35.5471635, Deniliquin Council,
delete this,Sydney, New South Wales, Australia,"Pipeline Trail Sydney, undefined, New South Wales, 2233 Australia",150.95349705529,-34.115998562205, undefined,
Deer Vale Cemetery,Deer Vale, New South Wales, Australia,"LOT 38 Beaumonts Rd Deer Vale, New South Wales, 2453 Australia",152.521262,-30.358425,,
Stone Quarry Cemetery,Jeebropilly, Queensland, Australia,"LOT 207 Stone Quarry Rd Jeebropilly, Queensland, 4340 Australia",152.659077,-27.650124,,
Stonehenge Cemetery,Stonehenge, Queensland, Australia,"LOT 41 Amesbury St Stonehenge, Queensland, 4730 Australia",143.283632,-24.363251,,
Delegate War Memorial,Delegate, New South Wales, Australia,"78-80 Bombala Street Delegate, Bombala Council, New South Wales, 2633 Australia",148.936475,-37.044763, Bombala Council,
Stanwell Cemetery,Stanwell, Queensland, Australia,"Stanwell-Waroula Rd Stanwell, Queensland, 4702 Australia",150.321939,-23.483567,,
St Paul's Lutheran Church columbarium wall,Mount Cotton, Queensland, Australia,"1257 Mount Cotton Road Mount Cotton, Queensland, 4165 Australia",153.235011,-27.62216,,
Daysdale Cemetery,Daysdale, New South Wales, Australia,"LOT 7300 West St Daysdale, New South Wales, 2646 Australia",146.295318,-35.632604,,
"St Matthew's Cemetery, Parish of Sherwood",Brisbane, Queensland, Australia,"48 Egmont Street Brisbane, Queensland, 4075 Australia",152.987561,-27.532731,,
Denham Court - Saint Mary the Virgin Anglican Church Graveyard ,Sydney, New South Wales, Australia,"5 Church Road Sydney, New South Wales, 2565 Australia",150.84318,-33.98185,,
Deniliquin Cemetery,Deniliquin, New South Wales, Australia,"LOT 7313 Wirraway Dr Deniliquin, New South Wales, 2710 Australia",144.938807,-35.555203,,
St Helena Penal Establishment Prisoners Cemetery,Port Of Brisbane, Queensland, Australia,"Unnamed Road Unnamed Road Port Of Brisbane, Queensland, 4178 Australia",153.23163,-27.394465,,
Dawsons Hill Cemetery,Goorangoola, New South Wales, Australia,"Dawsons Hill Rd Goorangoola, New South Wales, 2330 Australia",151.211936,-32.307284,,
Stanthorpe Cemetery,Stanthorpe, Queensland, Australia,"LOT 254 McGlew St Stanthorpe, Queensland, 4380 Australia",151.932957,-28.64559,,
delete this,Sydney, New South Wales, Australia,"Loveridge Street Sydney, Council of the City of Sydney, New South Wales, 2015 Australia",151.19768952045,-33.901927974536, Council of the City of Sydney,
Darbys Falls Cemetery,Darbys Falls, New South Wales, Australia,"LOT 2 Darbys Falls Rd Darbys Falls, New South Wales, 2793 Australia",148.856109,-33.916648,,
Delungra Cemetery,Delungra, New South Wales, Australia,"LOT 7006 Heywood Rd Delungra, New South Wales, 2403 Australia",150.808489,-29.664245,,
Dapto - Saint Luke Anglican Church Graveyard Brownsville,Wollongong, New South Wales, Australia,"33-37 Prince Edward Drive Wollongong, New South Wales, 2530 Australia 
                         
                    ",150.80449,-34.48387,,http://austcemindex.com/cemetery?cemid=1158
Dangarsleigh War Memorial,Dangarsleigh, New South Wales, Australia,"755 Dangarsleigh Road Dangarsleigh, Armidale Dumaresq Council, New South Wales, 2350 Australia",151.684928,-30.592715, Armidale Dumaresq Council,
Deepwater Cemetery,Deepwater, New South Wales, Australia,"LOT 196 Nant Park Rd Deepwater, New South Wales, 2371 Australia",151.837642,-29.448959,,
Penneshaw lone grave,Penneshaw, South Australia, Australia,"Cape Willoughby Road Penneshaw, Kangaroo Island Council, South Australia, 5222 Australia",137.9373,-35.7193, Kangaroo Island Council,
Dandaloo Church,Dandaloo, New South Wales, Australia,"LOT 101 Tyrie Road Dandaloo, New South Wales, 2823 Australia",147.616894,-32.270286,,
Penneshaw lone grave,Penneshaw, South Australia, Australia,"The Lane Penneshaw, Kangaroo Island Council, South Australia, 5222 Australia",137.9404,-35.7232, Kangaroo Island Council,
Dangarfield (Rouchel) Cemetery,Rouchel, New South Wales, Australia,"LOT 2 Rouchel Rd Rouchel, New South Wales, 2336 Australia",150.997394,-32.154922,,
Darlington Point Cemetery,Darlington Point, New South Wales, Australia,"LOT 124 Cemetery Ln Darlington Point, New South Wales, 2706 Australia",145.997701,-34.572892,,
Delegate Cemetery,Delegate, New South Wales, Australia,"LOT 6 Delegate Rd Delegate, New South Wales, 2633 Australia",148.986776,-37.039969,,
Dawson River Cemetery,Taree, New South Wales, Australia,"Dawson Cemetery Road Taree, New South Wales, 2430 Australia",152.501907,-31.888999,,
Peake Cemetery,Peake, South Australia, Australia,"Stirling Well Road Peake, Coorong District Council, South Australia, 5301 Australia",139.957002,-35.348906, Coorong District Council,
Parilla Cemetery,Parilla, South Australia, Australia,"Claypan Bore Road Parilla, Southern Mallee District Council, South Australia, 5303 Australia",140.681989,-35.265722, Southern Mallee District Council,
Parkside (Saint Oswald) Anglican Churchyard,Adelaide, South Australia, Australia,"5 St Ann's Place Adelaide, Adelaide, South Australia, 5063 Australia",138.61798,-34.94261, Adelaide,
Parrakie Cemetery,Parrakie, South Australia, Australia,"Parrakie South Road Parrakie, Southern Mallee District Council, South Australia, 5301 Australia",140.252507,-35.391593, Southern Mallee District Council,
Paradise (Saint Martin) Anglican Churchyard,Adelaide, South Australia, Australia,"4 Gorge Road Adelaide, Adelaide, South Australia, 5075 Australia",138.66559,-34.87641, Adelaide,
Penfield (Zoar) Bible Christian Cemetery,Penfield, South Australia, Australia,"311 Argent Rd Penfield, Adelaide, South Australia, 5121 Australia",138.635682,-34.682637, Adelaide,
Penneshaw Cemetery,Penneshaw, South Australia, Australia,"William Walker Way Penneshaw, Kangaroo Island Council, South Australia, 5222 Australia",137.92201,-35.722451, Kangaroo Island Council,
Penfield Sturton Primitive Methodist Church/graveyard,Adelaide, South Australia, Australia,"40 Sturton Road Adelaide, Adelaide, South Australia, 5111 Australia",138.637436,-34.725847, Adelaide,
Pekina (Saint Paul) Lutheran Churchyard,Booleroo Centre, South Australia, Australia,"Bouda Hut Road Booleroo Centre, The District Council of Orroroo Carrieton, South Australia, 5431 Australia",138.44021,-32.87822, The District Council of Orroroo Carrieton,
Paringa Cemetery,Paringa, South Australia, Australia,"Murtho Road Paringa, Renmark Paringa Council, South Australia, 5340 Australia",140.781751,-34.16297, Renmark Paringa Council,
Peep Hill (Saint Michael) Lutheran Churchyard,Peep Hill, South Australia, Australia,"664 Plains Rd Peep Hill, Eyre, South Australia, 5374 Australia",139.15452,-34.14689, Eyre,
Pekina (Saint Catherine) Catholic Churchyard,Orroroo, South Australia, Australia,"Price Maurice Road Orroroo, The District Council of Orroroo Carrieton, South Australia, 5431 Australia",138.55476,-32.83905, The District Council of Orroroo Carrieton,
Pekina Cemetery,Pekina, South Australia, Australia,"Cemetery Road Pekina, The District Council of Orroroo Carrieton, South Australia, 5431 Australia",138.537588,-32.842794, The District Council of Orroroo Carrieton,
Paruna Cemetery,Pinnaroo, South Australia, Australia,"Pinnaroo Loxton Road Pinnaroo, Southern Mallee District Council, South Australia, 5304 Australia",140.74062,-34.724974, Southern Mallee District Council,
Payneham Cemetery,Adelaide, South Australia, Australia,"1 Marian Road Adelaide, Adelaide, South Australia, 5070 Australia",138.643594,-34.902156, Adelaide,
Shady Creek Cemetery,Shady Creek, Victoria, Australia,"Webbs Rd Shady Creek, Victoria, 3821 Australia",146.062504,-38.079669,,
Parachilna Cemetery,Parachilna, South Australia, Australia,"Parachilna Gorge Road Parachilna, Pastoral Unincorporated Area, South Australia, 5730 Australia",138.399993,-31.131189, Pastoral Unincorporated Area,
Palmer Cemetery,Palmer, South Australia, Australia,"Reedy Creek Road Palmer, Mid Murray Council, South Australia, 5237 Australia",139.166133,-34.883526, Mid Murray Council,
Skipton Cemetery,Skipton, Victoria, Australia,"11 Currie St Skipton, Victoria, 3361 Australia",143.352717,-37.691047,,
Shepparton Public Cemetery,Shepparton, Victoria, Australia,"5 Rudd Rd Shepparton, Greater Shepparton City, Victoria, 3630 Australia",145.369052,-36.359101, Greater Shepparton City,
Skipton Victoria Australia,Skipton, Victoria, Australia,"11 Currie Street Skipton, Corangamite Shire, Victoria, 3361 Australia",143.35270903305,-37.691125337074, Corangamite Shire,
Sarsfield Cemetery,Sarsfield, Victoria, Australia,"555 Great Alpine Rd Sarsfield, Victoria, 3875 Australia",147.681355,-37.781806,,
sandhurst bendigo,Marong, Victoria, Australia,"Forest Drive Marong, Victoria, 3515 Australia",144.15276118351,-36.715456727355,,
See Yup Temple,Melbourne, Victoria, Australia,"76 Raglan Street Melbourne, Victoria, 3205 Australia",144.96312,-37.83693,,
Seymour Pioneer Park,Seymour, Victoria, Australia,"21 Crawford Street Seymour, Mitchell Shire, Victoria, 3660 Australia",145.140043,-37.021935, Mitchell Shire,
Seymour Cemetery,Seymour, Victoria, Australia,"21 Kobyboyn Rd Seymour, Victoria, 3660 Australia",145.16628,-37.038135,,
Sheep Hills Cemetery,Sheep Hills, Victoria, Australia,"534 Cemetery Rd Sheep Hills, Victoria, 3393 Australia",142.547144,-36.363279,,
Shelford Cemetery,Shelford, Victoria, Australia,"South Street Shelford, Victoria, 3329 Australia",143.97321,-38.02018,,
Scotts Creek Cemetery,Scotts Creek, Victoria, Australia,"LOT 12A Timboon-Colac Rd Scotts Creek, Victoria, 3267 Australia",143.045709,-38.454816,,
Sea Lake Cemetery,Sea Lake, Victoria, Australia,"A79 Sea Lake, Victoria, 3533 Australia",142.844366,-35.471592,,
Sandy Creek Cemetery,Sandy Creek, Victoria, Australia,"36 Sandy Creek Rd Sandy Creek, Victoria, 3695 Australia",147.107327,-36.278583,,
Spicers Gap Memorial,Clumber, Queensland, Australia,"LOT 2 Spicers Gap Rd Clumber, Queensland, 4309 Australia",152.425332,-28.073332,,
Sandon Cemetery,Sandon, Victoria, Australia,"LOT 1 Creswick-Newstead Rd Sandon, Victoria, 3462 Australia",144.0414,-37.1683,,
San Remo - Fishermen Lost at Sea,San Remo, Victoria, Australia,"151 Marine Parade San Remo, Victoria, 3925 Australia",145.36609,-38.521,,
San Remo,San Remo, Victoria, Australia,"33 Anderson Street San Remo, Victoria, 3925 Australia",145.3795,-38.52642,,
Southerncross Cemetery,Jimboomba, Queensland, Australia,"124-126 Mundoolun Road Jimboomba, Logan City, Queensland Australia",153.049526,-27.846147175713, Logan City,
St Helena Island Penal Establishment Warders' Children's Cemetery,Port Of Brisbane, Queensland, Australia,"Unnamed Road Unnamed Road Port Of Brisbane, Queensland, 4178 Australia",153.231068,-27.394424,,
St George Cemetery,St George, Queensland, Australia,"LOT 52 Victoria St St George, Queensland, 4487 Australia",148.60355,-28.02207,,
Springfield Gardens Crematorium,Elliott Heads, Queensland, Australia,"Three Chain Road Elliott Heads, Bundaberg Region, Queensland, 4670 Australia",152.458627,-24.897243, Bundaberg Region,
Springsure Cemetery,Springsure, Queensland, Australia,"LOT 64 Falls Creek Rd Springsure, Queensland, 4722 Australia",148.085996,-24.105533,,
Sale Cemetery,Sale, Victoria, Australia,"Maffra-Sale Road Sale, Victoria, 3850 Australia",147.05016,-38.08444,,
Southport Lawn Cemetery - Gold Coast,Gold Coast, Queensland, Australia,"191 Melia Court Gold Coast, Queensland, 4215 Australia",153.382621,-27.957418,,
Sandford Cemetery,Sandford, Victoria, Australia,"5794 Portland-Casterton Rd Sandford, Victoria, 3312 Australia",141.456173,-37.629315,,
Dandaloo Cemetery,Dandaloo, New South Wales, Australia,"LOT 7301 Derribong St Dandaloo, New South Wales, 2823 Australia",147.636938,-32.276756,,
Silver Hills Station lone graves,Richmond Shire, Queensland, Australia,"Richmond Woolgar Road Richmond Shire, Queensland, 4822 Australia",143.062705,-20.618949,,
South Isis Cemetery,South Isis, Queensland, Australia,"Aerodrome Place South Isis, Bundaberg Region, Queensland, 4660 Australia",152.348234,-25.255229, Bundaberg Region,
Dandaloo - lone graves *,Dandaloo, New South Wales, Australia,"LOT 6 Derribong St Dandaloo, New South Wales, 2823 Australia",147.628119,-32.266705,,
Southport General Cemetery - Gold Coast,Gold Coast, Queensland, Australia,"237 Queen Street Gold Coast, Queensland, 4215 Australia",153.397338,-27.969888,,
Somerset,Somerset, Queensland, Australia,"Somerset Road Somerset, Northern Peninsula Area Regional, Queensland, 4876 Australia",142.59254,-10.741112, Northern Peninsula Area Regional,
Dalton - Uniting Churchyard,Dalton, New South Wales, Australia,"LOT C Chapple St Dalton, New South Wales, 2581 Australia",149.1817,-34.723,,
Dalmorton Cemetery,Dalmorton, New South Wales, Australia,"Old Grafton Rd Dalmorton, New South Wales, 2460 Australia",152.487959,-29.869136,,
Dalton - Anglican Churchyard,Dalton, New South Wales, Australia,"LOT 6 Jobson St Dalton, New South Wales, 2581 Australia",149.179,-34.72,,
South Rockhampton Cemetery,Rockhampton, Queensland, Australia,"113-171 Upper Dawson Road Rockhampton, Queensland, 4700 Australia 
                         
                    ",150.503091,-23.398611,,http://www.rockhamptonregion.qld.gov.au/Your_Community/Cemeteries/South_Rockhampton_Cemetery
Silverleigh (Saint Paul) Lutheran Churchyard,Silverleigh, Queensland, Australia,"617 Acland Silverleigh Rd Silverleigh, Queensland, 4401 Australia",151.746876559525,-27.3123504672327,,
Silverleigh Lutheran Cemetery,Greenwood, Queensland, Australia,"Volls Rd Greenwood, Queensland, 4401 Australia",151.759156,-27.323935,,
South Kolan Cemetery,South Kolan, Queensland, Australia,"Gin Gin Road South Kolan, Bundaberg Region, Queensland, 4670 Australia",152.142714,-24.939092, Bundaberg Region,
Serpentine Creek Cemetery,Redland Bay, Queensland, Australia,"408-554 Serpentine Creek Rd Redland Bay, Queensland, 4165 Australia",153.301294,-27.669548,,
Sellheim Cemetery,Charters Towers, Queensland, Australia,"Flinders Highway Charters Towers, Charters Towers Regional Council, Queensland, 4820 Australia",146.401343,-20.009794, Charters Towers Regional Council,
Curlewis Cemetery,Curlewis, New South Wales, Australia,"LOT 161 Old Cemetery Rd Curlewis, New South Wales, 2381 Australia",150.269111,-31.1268,,
Currawang - Saint Matthias Anglican Churchyard,Currawang, New South Wales, Australia,"LOT 1 Currawang Rd Currawang, New South Wales, 2580 Australia 
                         
                    ",149.51153,-34.98425,,http://austcemindex.com/?cemid=1352
Curban General Cemetery,Curban, New South Wales, Australia,"LOT 79 Hillside Rd Curban, New South Wales, 2827 Australia",148.603787,-31.525929,,
Currawang - Spring Valley The Hermitage Church graveyard,Currawang, New South Wales, Australia,"Lucky Pass Rd Currawang, New South Wales, 2580 Australia",149.52713521969,-34.951125865617,,
Dalton Cemetery,Dalton, New South Wales, Australia,"LOT 7006 Dalton Rd Dalton, New South Wales, 2581 Australia",149.188962,-34.724076,,
South Brisbane (Dutton Park) Cemetery ,Brisbane, Queensland, Australia,"Annerley Road Dutton Park Qld 4102 Brisbane, Queensland, 4102 Australia 
                         
                    ",153.02608,-27.49934,,https://www.brisbane.qld.gov.au/facilities-recreation/parks-venues/cemeteries/south-brisbane-cemetery
Currawong Cemetery,Kingsvale, New South Wales, Australia,"Tiverton Rd Kingsvale, New South Wales, 2587 Australia",148.375357,-34.465344,,
Page family lone graves,Clifton Hills Station, South Australia, Australia,"Birdsville Track Clifton Hills Station, Pastoral Unincorporated Area, South Australia, 5733 Australia",139.524,-26.728, Pastoral Unincorporated Area,
Curra Creek Cemetery,Curra Creek, New South Wales, Australia,"1039 Curra Creek Rd Curra Creek, New South Wales, 2820 Australia",148.836823,-32.685295,,
Currabubula Cemetery,Currabubula, New South Wales, Australia,"LOT 21 Werris Creek Rd Currabubula, New South Wales, 2342 Australia",150.748536,-31.263878,,
Currawarna Cemetery,Currawarna, New South Wales, Australia,"LOT 7002 Old Narrandera Rd Currawarna, New South Wales, 2650 Australia",147.052774,-34.999962,,
Oodnadatta Pioneer Cemetery,Oodnadatta, South Australia, Australia,"Old Ghan Railway Oodnadatta, Pastoral Unincorporated Area, South Australia, 5734 Australia",135.450531,-27.550401, Pastoral Unincorporated Area,
Oodnadatta Cemetery,Oodnadatta, South Australia, Australia,"Oodnadatta Track Oodnadatta, Pastoral Unincorporated Area, South Australia, 5734 Australia",135.457992,-27.552475, Pastoral Unincorporated Area,
Cumborah Cemetery,Cumborah, New South Wales, Australia,"Wilby Wilby Road Cumborah, Walgett Shire Council, New South Wales, 2832 Australia",147.759676,-29.726744, Walgett Shire Council,
Cumeroogunja Cemetery,Moama, New South Wales, Australia,"2 Old Maloga Rd Moama, New South Wales, 2731 Australia",144.960351,-36.028993,,
Cumnock Cemetery,Cumnock, New South Wales, Australia,"LOT 3 Cumnock Cemetery Rd Cumnock, New South Wales, 2867 Australia",148.743001,-32.90875,,
Padthaway Cemetery,Padthaway, South Australia, Australia,"Beeamma - Parsons Road Padthaway, Tatiara District Council, South Australia, 5271 Australia",140.499571,-36.59955, Tatiara District Council,
One Tree Hill Cemetery,One Tree Hill, South Australia, Australia,"LOT 15 Cornishmans Hill Rd One Tree Hill, South Australia, 5114 Australia",138.763721,-34.706306,,
Oodnadatta Afghan Cemetery,Oodnadatta, South Australia, Australia,"Oodnadatta Track Oodnadatta, Pastoral Unincorporated Area, South Australia, 5734 Australia",135.436148,-27.540439, Pastoral Unincorporated Area,
Paisley Lutheran Church/graveyard,Paisley, South Australia, Australia,"Paisley Road Paisley, The District Council of Loxton Waikerie, South Australia, 5357 Australia",139.623481,-34.337603, The District Council of Loxton Waikerie,
Cunningham Family Cemetery,Goulburn, New South Wales, Australia,"Taralga Rd Goulburn, New South Wales, 2580 Australia",149.8012222362,-34.618422056687,,
Culcairn General Cemetery,Culcairn, New South Wales, Australia,"LOT 5 Hopetoun St Culcairn, New South Wales, 2660 Australia",147.055398,-35.655915,,
Cullen Bullen Cemetery,Cullen Bullen, New South Wales, Australia,"2734 Castlereagh Hwy Cullen Bullen, New South Wales, 2790 Australia",150.035777,-33.281391,,
Overland Corner Old Hotel Cemetery,Overland Corner, South Australia, Australia,"Herons Bend Track Overland Corner, The Berri Barmera Council, South Australia, 5330 Australia",140.333156,-34.151601, The Berri Barmera Council,
Orroroo Cemetery,Orroroo, South Australia, Australia,"12147 R M Williams Way Orroroo, The District Council of Orroroo Carrieton, South Australia, 5431 Australia 
                         
                    ",138.617374,-32.743762, The District Council of Orroroo Carrieton,https://www.orroroo.sa.gov.au/page.aspx?cemeteryId=64&searchString=&u=503&t=cemeterySearch&cemeterySearchMode=results
Oliver family graves,Adelaide, South Australia, Australia,"Seaview Road Adelaide, City of Onkaparinga, South Australia, 5171 Australia",138.531338,-35.190497, City of Onkaparinga,
Old Noarlunga (Wesleyan Methodist) Church/graveyard,Adelaide, South Australia, Australia,"Paringa Parade Adelaide, City of Onkaparinga, South Australia, 5168 Australia",138.504176,-35.181611, City of Onkaparinga,
Olary Cemetery,Olary, South Australia, Australia,"Devonborough Downs Road Olary, Pastoral Unincorporated Area, South Australia, 5440 Australia",140.325296,-32.293616, Pastoral Unincorporated Area,
Oodla Wirra Cemetery,Oodla Wirra, South Australia, Australia,"Rowe Street Oodla Wirra, The District Council of Peterborough, South Australia, 5422 Australia 
                         
                    ",139.057293,-32.890799, The District Council of Peterborough,http://www.peterborough.sa.gov.au/page.aspx?u=240&t=cemeterySearch&cemeterySearchMode=results&cemeteryId=16119&searchString=&startRow=41&print=1
Owen Cemetery,Owen, South Australia, Australia,"58 Old Mallala Rd Owen, Gawler, South Australia, 5460 Australia",138.538588,-34.278493, Gawler,
Nundroo Station Cemetery,Nundroo, South Australia, Australia,"Eyre Hwy Nundroo, Pastoral Unincorporated Area, South Australia, 5690 Australia",132.191634,-31.744831, Pastoral Unincorporated Area,
"Saint Paul Cathedral, Melbourne",Melbourne, Victoria, Australia,"197-209 Flinders Lane Melbourne, Victoria, 3000 Australia",144.96771,-37.81672,,
Saint Johns Uniting Church ,Cowes, Victoria, Australia,"80ï¿½84 Chapel Street Cowes, Victoria Australia",145.236998,-38.450126,,
Russells Creek Cemetery,Hill End, Victoria, Australia,"395 Russells Creek Rd Hill End, Victoria, 3825 Australia",146.161508,-37.997109,,
One Tree Hill (Uniting) Churchyard,One Tree Hill, South Australia, Australia,"1021 Black Top Rd One Tree Hill, Adelaide, South Australia, 5114 Australia",138.76827,-34.71852, Adelaide,
Saint Arnaud Old / New Bendigo Cemetery,St Arnaud North, Victoria, Australia,"440 Sunraysia Hwy St Arnaud North, Victoria, 3478 Australia",143.22068,-36.59372,,
Old Noarlunga Uniting Cemetery,Adelaide, South Australia, Australia,"26-34 Seaford Road Adelaide, City of Onkaparinga, South Australia, 5169 Australia",138.49063,-35.18067, City of Onkaparinga,
Old Noarlunga (Saint Philip/Saint James) Anglican Churchyard,Adelaide, South Australia, Australia,"Church Hill Road Adelaide, City of Onkaparinga, South Australia, 5168 Australia",138.50242,-35.17798, City of Onkaparinga,
Ruffy Cemetery,Ruffy, Victoria, Australia,"47 Nolans Rd Ruffy, Victoria, 3666 Australia",145.499045,-36.979271,,
O'Halloran Hill Cemetery,Adelaide, South Australia, Australia,"1708 Main South Road Adelaide, Adelaide, South Australia, 5158 Australia",138.55022,-35.07498, Adelaide,
Roseneath Cemetery,Warrock, Victoria, Australia,"Fosters Rd Warrock, Victoria, 3312 Australia",141.267848,-37.449803,,
Nuriootpa Cemetery,Nuriootpa, South Australia, Australia,"20-46 Vine St Nuriootpa, Light, South Australia, 5355 Australia",138.985553,-34.466357, Light,
Saint Helena (Saint Katherine Anglican) Churchyard,Melbourne, Victoria, Australia,"279 St Helena Road Melbourne, Victoria, 3088 Australia",145.12785,-37.69177,,
Saint John Uniting Church Memorial Garden,Melbourne, Victoria, Australia,"851 Mount Alexander Road Melbourne, Victoria, 3040 Australia",144.9180948687,-37.75686602996,,
Rutherglen Memorial Garden,Rutherglen, Victoria, Australia,"72ï¿½113 Murray Street Rutherglen, Victoria Australia",146.45575576938,-36.053827742725,,
Sacred Heart Convent Cemetery,Geelong, Victoria, Australia,"40 Cumberland Street Geelong, Victoria, 3220 Australia",144.338513,-38.148484,,
Robinvale General Cemetery,Robinvale, Victoria, Australia,"Murray Valley Hwy Robinvale, Victoria, 3549 Australia",142.77213,-34.58433,,
Rushworth Cemetery,Rushworth, Victoria, Australia,"30 Heily St Rushworth, Victoria, 3612 Australia",145.01621,-36.58399,,
Sarina (Saint Michael) Catholic Cemetery,Sarina, Queensland, Australia,"LOT 1 Petersen St Sarina, Queensland, 4737 Australia",149.21149,-21.40377,,
Rupanyup Cemetery,Rupanyup, Victoria, Australia,"80 Dyer St Rupanyup,  , Victoria, 3388 Australia",142.627975,-36.638507,,
Rosedale Cemetery,Rosedale, Victoria, Australia,"120 Rosedale-Stradbroke Road Rosedale, Victoria, 3847 Australia",146.800539,-38.168699,,
Runnymede Cemetery,Runnymede, Victoria, Australia,"1510 River Rd Runnymede, Victoria, 3559 Australia",144.628353,-36.538752,,
Sarina Cemetery,Sarina, Queensland, Australia,"62 Cemetery Rd Sarina, Queensland, 4737 Australia",149.226587,-21.403731,,
Rochester Cemetery,Rochester, Victoria, Australia,"5361 Heathcote-Rochester Rd Rochester, Victoria, 3561 Australia",144.724153,-36.364111,,
Rosebery Cemetery,Beulah, Victoria, Australia,"152 Rosebery Cemetery Rd Beulah, Victoria, 3395 Australia",142.45069,-35.8211,,
Rokewood Cemetery,Rokewood, Victoria, Australia,"Carrs Ln Rokewood, Victoria, 3330 Australia",143.712473,-37.889672,,
Saint Peter (Lutheran) Cemetery,Headington Hill, Queensland, Australia,"LOT 5 Carey Rd Headington Hill, Queensland, 4361 Australia",151.998,-27.8933,,
Rye Cemetery,Melbourne, Victoria, Australia,"22-30 Lyons Street, Rye Melbourne, Victoria, 3941 Australia",144.82391,-38.37426,,
Saint Paul (Lutheran) Church/Graveyard,Hatton Vale, Queensland, Australia,"4 Summerholm Rd Hatton Vale, Queensland, 4341 Australia",152.45983,-27.56876,,
Sapphire Cemetery,The Gemfields, Queensland, Australia,"LOT 47 River Rd The Gemfields, Queensland, 4702 Australia",147.730836,-23.468167,,
Sandgate (Sacred Heart Catholic) Church/columbarium,Brisbane, Queensland, Australia,"92 Brighton Rd Brisbane, Queensland, 4017 Australia",153.06692,-27.31727,,
Robinvale Cemetery,Robinvale Irrigation District Section B, Victoria, Australia,"4082 Murray Valley Highway Robinvale Irrigation District Section B, Swan Hill Rural City, Victoria, 3549 Australia",142.79354487962,-34.607240680305, Swan Hill Rural City,
Samsonvale Cemetery,Samsonvale, Queensland, Australia,"Golds Scrub Road, Samsonvale Samsonvale, Moreton Bay Region, Queensland Australia",152.859012,-27.268453, Moreton Bay Region,
Saint Luke (Anglican) Church/Graveyard,Brisbane, Queensland, Australia,"193 Ekibin Road East Brisbane, Queensland, 4103 Australia",153.03801,-27.5159,,
Samford Cemetery,Samford, Queensland, Australia,"219 School Road Samford, Queensland, 4520 Australia",152.879525,-27.376423,,
Saint Peter Memorial Wall,Brisbane, Queensland, Australia,"953-955 Rochedale Rd Brisbane, Queensland, 4123 Australia",153.12173,-27.59263,,
Sandgate (Bald Hills) Cemetery,Brisbane, Queensland, Australia,"40 Pellinore Road Brisbane, Queensland, 4017 Australia",153.034592,-27.31787,,
Saint Lawrence Cemetery,St Lawrence, Queensland, Australia,"LOT 147 Malcolm St St Lawrence, Queensland, 4707 Australia",149.5292,-22.35221,,
Saint Thomas (Anglican) Church/Graveyard,Brisbane, Queensland, Australia,"104 Jephson Street Brisbane, Queensland, 4066 Australia",152.99025689782,-27.487635050505,,
Crudine General Cemetery,Crudine, New South Wales, Australia,"1368 Crudine Rd Crudine, New South Wales, 2795 Australia",149.708084,-32.929175,,
Saint Luke (Lutheran) Church/Graveyard,Roadvale, Queensland, Australia,"LOT 1 Ipswich-Boonah Rd Roadvale, Queensland, 4310 Australia",152.71445,-27.93251,,
Saint Michael (Catholic) Church/Graveyard,Pine Mountain, Queensland, Australia,"856 Pine Mountain Rd Pine Mountain, Queensland, 4306 Australia",152.71049,-27.5429,,
Crookwell - Saint Bartholomew Anglican Church Graveyard,Crookwell, New South Wales, Australia,"Denison Ln Crookwell, New South Wales Australia",149.4674,-34.45801,,
Saint Mark (Anglican) Church/Graveyard,Brisbane, Queensland, Australia,"41 Winnetts Road Brisbane, Queensland, 4127 Australia",153.14891,-27.64405,,
Saint John Lutheran Cemetery,Guluguba, Queensland, Australia,"654 Upper Downfall Creek Road Guluguba, Queensland, 4418 Australia",150.14925,-26.25601,,
Saint Margaret (Anglican) Memorial Garden,Brisbane, Queensland, Australia,"58 Rainbow Street Brisbane, Queensland, 4017 Australia",153.06668,-27.32093,,
Crescent Head Cemetery,Crescent Head, New South Wales, Australia,"24 Belmore St Crescent Head, New South Wales, 2440 Australia",152.968966,-31.182433,,
Saint John Lutheran Cemetery,Kalbar, Queensland, Australia,"LOT 7 Teviotville Rd Kalbar, Queensland, 4309 Australia",152.64864885392,-27.94222942286,,
Cowra Monumental Cemetery,Eurobodalla Shire Council, New South Wales, Australia,"Eurobodalla Shire Council, New South Wales, 2545 Australia",149.84925118408,-36.065822586121,,
Cranebrook R/C Cemetery,Cranebrook, New South Wales, Australia,"77 East Wilchard Road Cranebrook, New South Wales, 2749 Australia",150.69529,-33.69234,,
Cudgegong General Cemetery,Cudgegong, New South Wales, Australia,"LOT 169 Cudgegong Rd Cudgegong, New South Wales, 2850 Australia",149.811137,-32.798007,,
Cowra Creek Cemetery,Peak View, New South Wales, Australia,"Dowling Fire Trail Peak View, New South Wales, 2630 Australia",149.318275,-35.999257,,
Cudal Cemetery,Cudal, New South Wales, Australia,"LOT 2 Cudal Cemetery Rd Cudal, New South Wales, 2864 Australia",148.768551,-33.275848,,
Cudgen Burial Ground ,Chinderah, New South Wales, Australia,"LOT 4 Tweed Coast Rd Chinderah, New South Wales, 2487 Australia",153.554383483467,-28.2481962521319,,
Crookwell Cemetery,Crookwell, New South Wales, Australia,"LOT 7005 Memory Ave Crookwell, New South Wales, 2583 Australia",149.480988,-34.448485,,
Coutts Crossing Cemetery,Coutts Crossing, New South Wales, Australia,"1570 Armidale Rd Coutts Crossing, New South Wales, 2460 Australia",152.887179,-29.831244,,
Couridjah Cemetery,Tahmoor, New South Wales, Australia,"LOT 7307 Bargo River Rd Tahmoor, New South Wales, 2573 Australia",150.571253,-34.236233,,
Corowa War Memorial,Corowa, New South Wales, Australia,"Honour Avenue Corowa, New South Wales Australia",146.39785580503,-35.987642747886,,
Crofton Grave at Buchanan NSW,Buchanan, New South Wales, Australia,"Buchanan Road Buchanan, Maitland City Council, New South Wales, 2323 Australia 
                         
                    ",151.54679717252,-32.787454424463, Maitland City Council,https://webarchive.nla.gov.au/awa/20090912172838/http://huntergraves.dnsalias.net/Maitland/EastMaitland/Crofton/Crofton.htm
Corrimal Catholic Cemetery,Wollongong, New South Wales, Australia,"3 Alban Street Wollongong, New South Wales, 2518 Australia",150.898535,-34.368224,,
Craigie Cemetery,Craigie, New South Wales, Australia,"LOT 159 Mila Rd Craigie, New South Wales, 2632 Australia",149.058294,-37.068841,,
North Plympton (All Saints) Uniting Church/Pioneer Hall,Adelaide, South Australia, Australia,"364a Marion Road Adelaide, Adelaide, South Australia, 5037 Australia",138.55415,-34.95961, Adelaide,
Cowra Cemetery,Cowra, New South Wales, Australia,"43 Doncaster Drive Cowra, Cowra Shire Council, New South Wales, 2794 Australia",148.690658,-33.801133, Cowra Shire Council,
Normanville lone graves/memorial,Normanville, South Australia, Australia,"Robert Norman Street Normanville, The District Council of Yankalilla, South Australia, 5204 Australia",138.327201,-35.441351, The District Council of Yankalilla,
North Adelaide Brougham Place Uniting Church/memorials,Adelaide, South Australia, Australia,"193 Brougham Place Adelaide, Adelaide City Council, South Australia, 5006 Australia",138.600481,-34.909444, Adelaide City Council,
Cowra Japanese War Cemetery ,Cowra, New South Wales, Australia,"43 Doncaster Drive Cowra, New South Wales Australia",148.691859474869,-33.80132,,
Cow Flat - Dennis Island Methodist Cemetery,Cow Flat, New South Wales, Australia,"438 Cow Flat Rd Cow Flat, New South Wales, 2795 Australia",149.504983,-33.556045,,
Corunna Cemetery,Corunna, New South Wales, Australia,"769 Old Hwy Corunna, New South Wales, 2546 Australia",150.106413,-36.27386,,
Netherleigh Cemetery,Naidia, South Australia, Australia,"Lot 115 Naidia Rd Naidia, The District Council of Loxton Waikerie, South Australia, 5354 Australia",139.786066,-34.486376, The District Council of Loxton Waikerie,
Norton Summit Cemetery,Norton Summit, South Australia, Australia,"47 Church Rd Norton Summit, Adelaide, South Australia, 5136 Australia",138.731542,-34.927222, Adelaide,
Nepabunna Community Cemetery,Nepabunna, South Australia, Australia,"Gammon Ranges Road Nepabunna, Pastoral Unincorporated Area, South Australia, 5732 Australia",138.975992,-30.582589, Pastoral Unincorporated Area,
North Road Cemetery,Adelaide, South Australia, Australia,"1A Cemetery Ave Adelaide, Adelaide, South Australia, 5083 Australia 
                         
                    ",138.60595,-34.89004, Adelaide,http://www.anglicancemeteries.com/
Narrung Cemetery,Narrung, South Australia, Australia,"Sanders Road Narrung, Coorong District Council, South Australia, 5259 Australia",139.127593,-35.537388, Coorong District Council,
North Adelaide Baptist Church - Memorial Gardens,Adelaide, South Australia, Australia,"154 Tynte Street Adelaide, Adelaide City Council, South Australia, 5006 Australia",138.594726,-34.905963, Adelaide City Council,
Nildottie Cemetery,Nildottie, South Australia, Australia,"Hunter Road Nildottie, Mid Murray Council, South Australia, 5238 Australia",139.652574,-34.678073, Mid Murray Council,
Normanville (Saint Peter) Catholic Churchyard,Normanville, South Australia, Australia,"Saint Andrews Boulevard Normanville, The District Council of Yankalilla, South Australia, 5204 Australia",138.30963,-35.45834, The District Council of Yankalilla,
Neukirch Pilgrim Lutheran Church/graveyard,Ebenezer, South Australia, Australia,"665 Belvedere Rd cnr Diagonal Rd Ebenezer, Light, South Australia, 5355 Australia",139.011263,-34.404042, Light,
Neales Flat (Trinity) Lutheran Churchyard,Neales Flat, South Australia, Australia,"582 Neales Rd (Lot 30) cnr Quondong Rd Neales Flat, Eyre, South Australia, 5374 Australia",139.16187,-34.22889, Eyre,
New Residence (Trinity Lutheran) Church/Cemetery,New Residence, South Australia, Australia,"Klau Road New Residence, The District Council of Loxton Waikerie, South Australia, 5333 Australia",140.40556421456,-34.372646248282, The District Council of Loxton Waikerie,
Neukirch Lutheran Cemetery,Ebenezer, South Australia, Australia,"122 Neukirch Rd (Lot 100) Ebenezer, Light, South Australia, 5355 Australia",138.999381,-34.401636, Light,
Red Jacket Cemetery,Jericho, Victoria, Australia,"Red Jacket Track Jericho, Victoria, 3825 Australia",146.294611,-37.655464,,
Navan Catholic Cemetery,,,,"12 Francis St off Old Main Rd South Navan, N of Tarlee, Light, South Australia, 5412 Australia",138.748719,-34.210741,,
Neales Flat (Saint Stephan) Lutheran Churchyard,Neales Flat, South Australia, Australia,"221 Stephan Road Neales Flat, Eyre, South Australia, 5374 Australia",139.18422111374,-34.225333709514, Eyre,
North Brighton,Adelaide, South Australia, Australia,"301 Brighton Road Adelaide, Adelaide, South Australia, 5048 Australia",138.51951,-35.0025, Adelaide,
Ramahyuk Cemetery,Perry Bridge, Victoria, Australia,"109 Ramahyuck Rd Perry Bridge, Victoria, 3862 Australia",147.237033,-38.016654,,
Naracoorte Cemetery,Naracoorte, South Australia, Australia,"Playford Drive Naracoorte, Naracoorte Lucindale Council, South Australia, 5271 Australia",140.730071,-36.945979, Naracoorte Lucindale Council,
Riddells Creek Cemetery,Riddells Creek, Victoria, Australia,"174 Royal Parade Riddells Creek, Victoria, 3431 Australia",144.662744,-37.445596,,
Ripplebrook Cemetery,Ripplebrook, Victoria, Australia,"687 N Yannathan Rd Ripplebrook, Victoria, 3818 Australia",145.750831,-38.207499,,
Narridy Cemetery,Narridy, South Australia, Australia,"Lot 458 Narridy-Koolunga Rd Narridy, Victoria, South Australia, 5523 Australia",138.318871,-33.438134, Victoria,
Redcastle Cemetery,Redcastle, Victoria, Australia,"61 Redcastle Cemetery Rd Redcastle, Victoria, 3523 Australia",144.786715,-36.792841,,
Rheola Cemetery,Rheola, Victoria, Australia,"35 Taylors Rd Rheola, Victoria, 3517 Australia",143.706643,-36.650896,,
Redbank Cemetery,Redbank, Victoria, Australia,"30 Cemetery Rd Redbank, Victoria, 3478 Australia",143.327408,-36.929099,,
Red Cliffs Lawn Cemetery,Red Cliffs, Victoria, Australia,"277 Red Cliffs-Meringur Rd Red Cliffs, Victoria, 3496 Australia",142.156408,-34.330432,,
Rainbow Cemetery,Rainbow, Victoria, Australia,"Rainbow-Nhill Rd Rainbow, Victoria, 3424 Australia",141.990231,-35.902987,,
Red Cliffs Pioneer Cemetery,Red Cliffs, Victoria, Australia,"Triodia St Red Cliffs, Victoria, 3496 Australia",142.162943,-34.332749,,
Raywood Cemetery,Raywood, Victoria, Australia,"173 Robertson St Raywood, Victoria, 3570 Australia",144.198088,-36.530088,,
Saint John Church/Graveyard,Minden, Queensland, Australia,"774 Lowood-Minden Rd Minden, Queensland, 4311 Australia",152.54464,-27.5314,,
